[{"lat":-37.8136276,"lng":144.9630576,"name":"Melbourne","types":"['colloquial_area', 'locality', 'political']","placeID":"ChIJgf0RD69C1moR4OeMIXVWBAU","state":"VIC","distance":null,"travelTime":null,"postcode":[3000,3001,3004,8001,8045,8051,8060,8061,8066,8069,8070,8071,8102,8103,8107,8108,8111,8120,8205,8383,8386,8388,8390,8393,8394,8396,8399]},{"lat":-37.8103283,"lng":144.9834796,"name":"East Melbourne","types":"['locality', 'political']","placeID":"ChIJz25SvMFC1moRAOiMIXVWBAU","state":"VIC","distance":null,"travelTime":null,"postcode":[3002,8002]},{"lat":-37.8089044,"lng":144.9290625,"name":"West Melbourne","types":"['locality', 'political']","placeID":"ChIJeduNNNhC1moR8OeMIXVWBAU","state":"VIC","distance":null,"travelTime":null,"postcode":[3003]},{"lat":-37.8243947,"lng":144.9523191,"name":"South Wharf","types":"['locality', 'political']","placeID":"ChIJ1YQ5tfdn1moRAAGNIXVWBAU","state":"VIC","distance":null,"travelTime":null,"postcode":[3006]},{"lat":-37.82384,"lng":144.9624973,"name":"Southbank","types":"['locality', 'political']","placeID":"ChIJD-GLCkVd1moRwP6MIXVWBAU","state":"VIC","distance":null,"travelTime":null,"postcode":[3006]},{"lat":-37.8190118,"lng":144.9465764,"name":"Docklands","types":"['locality', 'political']","placeID":"ChIJb9QWRmdd1moR8P2MIXVWBAU","state":"VIC","distance":null,"travelTime":null,"postcode":[3008,8012]},{"lat":-37.7988987,"lng":144.892357,"name":"Footscray","types":"['locality', 'political']","placeID":"ChIJJ8HEn41d1moRQOeMIXVWBAU","state":"VIC","distance":null,"travelTime":null,"postcode":[3011]},{"lat":-37.8066635,"lng":144.8917354,"name":"Seddon","types":"['locality', 'political']","placeID":"ChIJUY5dfF9n1moRcPiMIXVWBAU","state":"VIC","distance":null,"travelTime":null,"postcode":[3011]},{"lat":-37.8173492,"lng":144.8465361,"name":"Brooklyn","types":"['locality', 'political']","placeID":"ChIJNwKTjb9g1moRUPiMIXVWBAU","state":"VIC","distance":null,"travelTime":null,"postcode":[3012]},{"lat":-37.8086674,"lng":144.8800502,"name":"Kingsville","types":"['locality', 'political']","placeID":"ChIJT41yelFn1moRYPiMIXVWBAU","state":"VIC","distance":null,"travelTime":null,"postcode":[3012]},{"lat":-37.7828499,"lng":144.8689053,"name":"Maidstone","types":"['locality', 'political']","placeID":"ChIJBT1zwt9d1moRANeMIXVWBAU","state":"VIC","distance":null,"travelTime":null,"postcode":[3012]},{"lat":-37.8100003,"lng":144.8586828,"name":"Tottenham","types":"['locality', 'political']","placeID":"ChIJSzcjyrxg1moRQPyMIXVWBAU","state":"VIC","distance":null,"travelTime":null,"postcode":[3012]},{"lat":-37.8006709,"lng":144.8716645,"name":"West Footscray","types":"['locality', 'political']","placeID":"ChIJ6QvqCP9d1moRwNeMIXVWBAU","state":"VIC","distance":null,"travelTime":null,"postcode":[3012]},{"lat":-37.8202741,"lng":144.8821697,"name":"Yarraville","types":"['locality', 'political']","placeID":"ChIJvdvg2Ehn1moRsNiMIXVWBAU","state":"VIC","distance":null,"travelTime":null,"postcode":[3013]},{"lat":-37.8424548,"lng":144.8830489,"name":"Newport","types":"['locality', 'political']","placeID":"ChIJSzOKInBn1moRkOiMIXVWBAU","state":"VIC","distance":null,"travelTime":null,"postcode":[3015]},{"lat":-37.8310243,"lng":144.8695973,"name":"South Kingsville","types":"['locality', 'political']","placeID":"ChIJHTRMTC1n1moRQPiMIXVWBAU","state":"VIC","distance":null,"travelTime":null,"postcode":[3015]},{"lat":-37.8298089,"lng":144.8863391,"name":"Spotswood","types":"['locality', 'political']","placeID":"ChIJNXKUTzpn1moRIOiMIXVWBAU","state":"VIC","distance":null,"travelTime":null,"postcode":[3015]},{"lat":-37.8583477,"lng":144.8937637,"name":"Williamstown","types":"['locality', 'political']","placeID":"ChIJHdSZnlRm1moREOmMIXVWBAU","state":"VIC","distance":null,"travelTime":null,"postcode":[3016]},{"lat":-37.851972,"lng":144.8628571,"name":"Williamstown North","types":"['locality', 'political']","placeID":"ChIJH-0Qrcpm1moRAOmMIXVWBAU","state":"VIC","distance":null,"travelTime":null,"postcode":[3016]},{"lat":-37.864571,"lng":144.8311028,"name":"Altona","types":"['locality', 'political']","placeID":"ChIJITJxwZ1h1moRcNqMIXVWBAU","state":"VIC","distance":null,"travelTime":null,"postcode":[3018]},{"lat":-37.8659875,"lng":144.8438552,"name":"Seaholme","types":"['locality', 'political']","placeID":"ChIJ-aOaJmJh1moRsPuMIXVWBAU","state":"VIC","distance":null,"travelTime":null,"postcode":[3018]},{"lat":-37.7859028,"lng":144.8587417,"name":"Braybrook","types":"['locality', 'political']","placeID":"ChIJ7w6_fhpe1moRoNaMIXVWBAU","state":"VIC","distance":null,"travelTime":null,"postcode":[3019]},{"lat":-37.7756888,"lng":144.8154041,"name":"Albion","types":"['locality', 'political']","placeID":"ChIJGWAmPtpf1moRMPiMIXVWBAU","state":"VIC","distance":null,"travelTime":null,"postcode":[3020]},{"lat":-37.7812629,"lng":144.8327296,"name":"Sunshine","types":"['locality', 'political']","placeID":"ChIJYS4t5oBg1moR4NSMIXVWBAU","state":"VIC","distance":null,"travelTime":null,"postcode":[3020]},{"lat":-37.7642525,"lng":144.8310751,"name":"Sunshine North","types":"['locality', 'political']","placeID":"ChIJEby-mk5e1moRIPiMIXVWBAU","state":"VIC","distance":null,"travelTime":null,"postcode":[3020]},{"lat":-37.7946685,"lng":144.818759,"name":"Sunshine West","types":"['locality', 'political']","placeID":"ChIJQQqwwUFg1moRoNeMIXVWBAU","state":"VIC","distance":null,"travelTime":null,"postcode":[3020]},{"lat":-37.7459531,"lng":144.7700614,"name":"Albanvale","types":"['locality', 'political']","placeID":"ChIJqfrjBGr11moRkPiMIXVWBAU","state":"VIC","distance":null,"travelTime":null,"postcode":[3021]},{"lat":-37.7327512,"lng":144.8238362,"name":"Kealba","types":"['locality', 'political']","placeID":"ChIJQ02lKwNf1moRkNOMIXVWBAU","state":"VIC","distance":null,"travelTime":null,"postcode":[3021]},{"lat":-37.7334692,"lng":144.7662246,"name":"Kings Park","types":"['locality', 'political']","placeID":"ChIJ38iUzXD11moRgNOMIXVWBAU","state":"VIC","distance":null,"travelTime":null,"postcode":[3021]},{"lat":-37.7442306,"lng":144.7999941,"name":"St Albans","types":"['locality', 'political']","placeID":"ChIJg9teT5hf1moRsNOMIXVWBAU","state":"VIC","distance":null,"travelTime":null,"postcode":[3021]},{"lat":-37.7728857,"lng":144.8018125,"name":"Ardeer","types":"['locality', 'political']","placeID":"ChIJhRNfsOFf1moRMNaMIXVWBAU","state":"VIC","distance":null,"travelTime":null,"postcode":[3022]},{"lat":-37.7702749,"lng":144.7747728,"name":"Deer Park","types":"['locality', 'political']","placeID":"ChIJR3nGs7KK1moRANWMIXVWBAU","state":"VIC","distance":null,"travelTime":null,"postcode":[3023]},{"lat":-37.7469113,"lng":144.7485686,"name":"Burnside","types":"['locality', 'political']","placeID":"ChIJgwu1ADD11moR8NOMIXVWBAU","state":"VIC","distance":null,"travelTime":null,"postcode":[3023]},{"lat":-37.7310619,"lng":144.7593958,"name":"Burnside Heights","types":"['locality', 'political']","placeID":"ChIJcwx33hH11moRkACNIXVWBAU","state":"VIC","distance":null,"travelTime":null,"postcode":[3023]},{"lat":-37.7573769,"lng":144.784452,"name":"Cairnlea","types":"['locality', 'political']","placeID":"ChIJB3_IrPZf1moRQP-MIXVWBAU","state":"VIC","distance":null,"travelTime":null,"postcode":[3023]},{"lat":-37.7431281,"lng":144.7356782,"name":"Caroline Springs","types":"['locality', 'political']","placeID":"ChIJY6z6Z-H01moRsPaMIXVWBAU","state":"VIC","distance":null,"travelTime":null,"postcode":[3023]},{"lat":-37.7656943,"lng":144.7524498,"name":"Ravenhall","types":"['locality', 'political']","placeID":"ChIJdflkCCGL1moRQNWMIXVWBAU","state":"VIC","distance":null,"travelTime":null,"postcode":[3023]},{"lat":-37.8871381,"lng":144.5959948,"name":"Mambourin","types":"['locality', 'political']","placeID":"ChIJd6xJIkma1moRsPqMIXVWBAU","state":"VIC","distance":null,"travelTime":null,"postcode":[3024]},{"lat":-37.7968036,"lng":144.6230256,"name":"Mount Cottrell","types":"['locality', 'political']","placeID":"ChIJ71g_BwaO1moRsNSMIXVWBAU","state":"VIC","distance":null,"travelTime":null,"postcode":[3024]},{"lat":-37.8892516,"lng":144.6213448,"name":"Wyndham Vale","types":"['locality', 'political']","placeID":"ChIJvz8ZDQaQ1moRIOmMIXVWBAU","state":"VIC","distance":null,"travelTime":null,"postcode":[3024]},{"lat":-37.8347138,"lng":144.8475943,"name":"Altona North","types":"['locality', 'political']","placeID":"ChIJER9c5gZh1moRENmMIXVWBAU","state":"VIC","distance":null,"travelTime":null,"postcode":[3025]},{"lat":-37.8280477,"lng":144.7854874,"name":"Laverton North","types":"['locality', 'political']","placeID":"ChIJqWe3585h1moR4NiMIXVWBAU","state":"VIC","distance":null,"travelTime":null,"postcode":[3026]},{"lat":-37.8629027,"lng":144.6854533,"name":"Hoppers Crossing","types":"['locality', 'political']","placeID":"ChIJBbWfCrSI1moR8OiMIXVWBAU","state":"VIC","distance":null,"travelTime":null,"postcode":[3029]},{"lat":-37.8362006,"lng":144.6722205,"name":"Tarneit","types":"['locality', 'political']","placeID":"ChIJwwOmKjL11moRcNiMIXVWBAU","state":"VIC","distance":null,"travelTime":null,"postcode":[3029]},{"lat":-37.8248334,"lng":144.7486991,"name":"Truganina","types":"['locality', 'political']","placeID":"ChIJVxb4kQ1f1moRcNWMIXVWBAU","state":"VIC","distance":null,"travelTime":null,"postcode":[3029]},{"lat":-37.7927082,"lng":144.7715559,"name":"Derrimut","types":"['locality', 'political']","placeID":"ChIJgyAnPYOK1moRcNeMIXVWBAU","state":"VIC","distance":null,"travelTime":null,"postcode":[3030]},{"lat":-37.8424127,"lng":144.5033914,"name":"Quandong","types":"['locality', 'political']","placeID":"ChIJPTyySOSZ1moR0ACNIXVWBAU","state":"VIC","distance":null,"travelTime":null,"postcode":[3030]},{"lat":-37.8997995,"lng":144.6641401,"name":"Werribee","types":"['locality', 'political']","placeID":"ChIJUzACEw2F1moRQOmMIXVWBAU","state":"VIC","distance":null,"travelTime":null,"postcode":[3030]},{"lat":-37.9446946,"lng":144.689209,"name":"Werribee South","types":"['locality', 'political']","placeID":"ChIJU99FP9OF1moRUOmMIXVWBAU","state":"VIC","distance":null,"travelTime":null,"postcode":[3030]},{"lat":-37.7853038,"lng":144.9217957,"name":"Flemington","types":"['locality', 'political']","placeID":"ChIJx_d-ZwZd1moRUNeMIXVWBAU","state":"VIC","distance":null,"travelTime":null,"postcode":[3031]},{"lat":-37.7745085,"lng":144.9278026,"name":"Ascot Vale","types":"['locality', 'political']","placeID":"ChIJt1lRhapd1moR8NaMIXVWBAU","state":"VIC","distance":null,"travelTime":null,"postcode":[3032]},{"lat":-37.7837482,"lng":144.8908713,"name":"Maribyrnong","types":"['locality', 'political']","placeID":"ChIJKzZULsxd1moR8NWMIXVWBAU","state":"VIC","distance":null,"travelTime":null,"postcode":[3032]},{"lat":-37.7792935,"lng":144.9363143,"name":"Travancore","types":"['locality', 'political']","placeID":"ChIJQ-aoCuFc1moRAP2MIXVWBAU","state":"VIC","distance":null,"travelTime":null,"postcode":[3032]},{"lat":-37.739801,"lng":144.8637658,"name":"Keilor East","types":"['locality', 'political']","placeID":"ChIJQ_3Gfb5e1moRYNOMIXVWBAU","state":"VIC","distance":null,"travelTime":null,"postcode":[3033]},{"lat":-37.7161471,"lng":144.8282459,"name":"Keilor","types":"['locality', 'political']","placeID":"ChIJ3fwOQypZ1moRwNGMIXVWBAU","state":"VIC","distance":null,"travelTime":null,"postcode":[3036]},{"lat":-37.6920065,"lng":144.8094364,"name":"Keilor North","types":"['locality', 'political']","placeID":"ChIJJYrP5x721moRcNGMIXVWBAU","state":"VIC","distance":null,"travelTime":null,"postcode":[3036]},{"lat":-37.8369312,"lng":144.9284179,"name":"Port Melbourne","types":"['locality', 'political']","placeID":"ChIJ9zHvuD9m1moRQOiMIXVWBAU","state":"VIC","distance":null,"travelTime":null,"postcode":[3207]},{"lat":-38.2702042,"lng":145.8352633,"name":"Hallora","types":"['locality', 'political']","placeID":"ChIJ8Wl0cErtKWsREGCgMKR5BQQ","state":"VIC","distance":null,"travelTime":null,"postcode":[3818]},{"lat":-38.0877927,"lng":145.8720711,"name":"Drouin West","types":"['locality', 'political']","placeID":"ChIJl8Wfzmq_KWsRoF2gMKR5BQQ","state":"VIC","distance":null,"travelTime":null,"postcode":[3818]},{"lat":-37.9002829,"lng":144.7535412,"name":"Point Cook","types":"['locality', 'political']","placeID":"ChIJx4oU4nOI1moRkNyMIXVWBAU","state":"VIC","distance":null,"travelTime":null,"postcode":[3030]},{"lat":-38.1724104,"lng":145.820244,"name":"Drouin South","types":"['locality', 'political']","placeID":"ChIJT0HHKinrKWsRkF2gMKR5BQQ","state":"VIC","distance":null,"travelTime":null,"postcode":[3818]},{"lat":-38.0270212,"lng":145.8992221,"name":"Jindivick","types":"['locality', 'political']","placeID":"ChIJ7y88Y7K5KWsRcGGgMKR5BQQ","state":"VIC","distance":null,"travelTime":null,"postcode":[3818]},{"lat":-38.1833226,"lng":145.7810873,"name":"Ripplebrook","types":"['locality', 'political']","placeID":"ChIJBzdaHibsKWsRoGagMKR5BQQ","state":"VIC","distance":null,"travelTime":null,"postcode":[3818]},{"lat":-38.2093586,"lng":145.9716415,"name":"Bona Vista","types":"['locality', 'political']","placeID":"ChIJ_Rwr2I2XKWsRoFqgMKR5BQQ","state":"VIC","distance":null,"travelTime":null,"postcode":[3820]},{"lat":-38.124191,"lng":145.9666424,"name":"Lillico","types":"['locality', 'political']","placeID":"ChIJNxFYfJi9KWsRoGKgMKR5BQQ","state":"VIC","distance":null,"travelTime":null,"postcode":[3820]},{"lat":-38.6546964,"lng":145.5805686,"name":"Harmers Haven","types":"['locality', 'political']","placeID":"ChIJy1qexVhzKmsRcG6gMKR5BQQ","state":"VIC","distance":null,"travelTime":null,"postcode":[3995]},{"lat":-37.5294394,"lng":144.9595481,"name":"Kalkallo","types":"['locality', 'political']","placeID":"ChIJtSjT_VSt12oRNQh5DktKf9c","state":"VIC","distance":null,"travelTime":null,"postcode":[3064]},{"lat":-38.1040966,"lng":145.4286847,"name":"Officer South","types":"['locality', 'political']","placeID":"ChIJxWmvON4c1moR4PyMIXVWBAU","state":"VIC","distance":null,"travelTime":null,"postcode":[3809]},{"lat":-37.6709849,"lng":144.9319545,"name":"Dallas","types":"['locality', 'political']","placeID":"ChIJiS68AXVQ1moRYP2MIXVWBAU","state":"VIC","distance":null,"travelTime":null,"postcode":[3047]},{"lat":-38.5498,"lng":145.4761,"name":"Kilcunda","types":"['locality', 'political']","placeID":"ChIJqRF4dgsKKmsR8G6gMKR5BQQ","state":"VIC","distance":null,"travelTime":null,"postcode":[3995]},{"lat":-38.3361633,"lng":144.9740524,"name":"Dromana","types":"['locality', 'political']","placeID":"ChIJNZ8DokvP1WoRUOWMIXVWBAU","state":"VIC","distance":null,"travelTime":null,"postcode":[3936]},{"lat":-37.3941313,"lng":144.8342858,"name":"Chintin","types":"['locality', 'political']","placeID":"ChIJSeb_lv6l12oRIHmgMKR5BQQ","state":"VIC","distance":null,"travelTime":null,"postcode":[3756]},{"lat":-36.92651,"lng":144.397973,"name":"Myrtle Creek","types":"['locality', 'political']","placeID":"ChIJA2b-wopC12oRYIGgMKR5BQQ","state":"VIC","distance":null,"travelTime":null,"postcode":[3551]},{"lat":-37.726234,"lng":144.8813526,"name":"Airport West","types":"['locality', 'political']","placeID":"ChIJg9-C0mRb1moR4NKMIXVWBAU","state":"VIC","distance":null,"travelTime":null,"postcode":[3042]},{"lat":-37.737462,"lng":144.9014161,"name":"Essendon North","types":"['locality', 'political']","placeID":"ChIJJwdZpXZc1moRINOMIXVWBAU","state":"VIC","distance":null,"travelTime":null,"postcode":[3041]},{"lat":-37.8635199,"lng":144.7710013,"name":"Laverton","types":"['locality', 'political']","placeID":"ChIJWR-ehumJ1moRUNqMIXVWBAU","state":"VIC","distance":null,"travelTime":null,"postcode":[3028]},{"lat":-37.9536683,"lng":144.6368375,"name":"Cocoroc","types":"['locality', 'political']","placeID":"ChIJd04yNmGD1moRUPyMIXVWBAU","state":"VIC","distance":null,"travelTime":null,"postcode":[3030]},{"lat":-37.7134968,"lng":144.7555173,"name":"Taylors Hill","types":"['locality', 'political']","placeID":"ChIJky8wcaX11moR8P6MIXVWBAU","state":"VIC","distance":null,"travelTime":null,"postcode":[3037]},{"lat":-37.8715626,"lng":144.7775818,"name":"Altona Meadows","types":"['locality', 'political']","placeID":"ChIJ20tO69SJ1moRcNuMIXVWBAU","state":"VIC","distance":null,"travelTime":null,"postcode":[3028]},{"lat":-37.69754,"lng":144.7978052,"name":"Keilor Lodge","types":"['locality', 'political']","placeID":"ChIJe7937LNY1moRAPqMIXVWBAU","state":"VIC","distance":null,"travelTime":null,"postcode":[3038]},{"lat":-37.7014845,"lng":144.7644401,"name":"Sydenham","types":"['locality', 'political']","placeID":"ChIJMU4X_-P11moRgNGMIXVWBAU","state":"VIC","distance":null,"travelTime":null,"postcode":[3037]},{"lat":-38.1737337,"lng":145.139271,"name":"Frankston South","types":"['locality', 'political']","placeID":"ChIJLxdiRNZ01moRsP6MIXVWBAU","state":"VIC","distance":null,"travelTime":null,"postcode":[3199]},{"lat":-38.1580961,"lng":144.3743874,"name":"East Geelong","types":"['locality', 'political']","placeID":"ChIJFwT5xSgU1GoRcOKMIXVWBAU","state":"VIC","distance":null,"travelTime":null,"postcode":[3219]},{"lat":-38.2727329,"lng":144.6134463,"name":"Point Lonsdale","types":"['locality', 'political']","placeID":"ChIJSQvnStM51GoRcOSMIXVWBAU","state":"VIC","distance":null,"travelTime":null,"postcode":[3225]},{"lat":-37.7527648,"lng":144.9160333,"name":"Essendon","types":"['locality', 'political']","placeID":"ChIJK6m1WmNc1moRcNSMIXVWBAU","state":"VIC","distance":null,"travelTime":null,"postcode":[3040]},{"lat":-37.7684005,"lng":144.8646254,"name":"Avondale Heights","types":"['locality', 'political']","placeID":"ChIJve4RVXxe1moRINWMIXVWBAU","state":"VIC","distance":null,"travelTime":null,"postcode":[3034]},{"lat":-37.7255297,"lng":144.8944729,"name":"Essendon Fields","types":"['locality', 'political']","placeID":"ChIJXfjgUZBb1moR5zyJYHSTwK4","state":"VIC","distance":null,"travelTime":null,"postcode":[3041]},{"lat":-37.5480507,"lng":145.2671698,"name":"Strathewen","types":"['locality', 'political']","placeID":"ChIJs1i3R1jO12oREISgMKR5BQQ","state":"VIC","distance":null,"travelTime":null,"postcode":[3099]},{"lat":-37.4946974,"lng":145.0743918,"name":"Eden Park","types":"['locality', 'political']","placeID":"ChIJmVfvmqG212oRAM6MIXVWBAU","state":"VIC","distance":null,"travelTime":null,"postcode":[3757]},{"lat":-37.7247031,"lng":145.3786112,"name":"Coldstream","types":"['locality', 'political']","placeID":"ChIJZfkuEWIr1moRwNCMIXVWBAU","state":"VIC","distance":null,"travelTime":null,"postcode":[3770]},{"lat":-37.6920638,"lng":144.7442073,"name":"Hillside","types":"['locality', 'political']","placeID":"ChIJl724Dzj01moRENGMIXVWBAU","state":"VIC","distance":null,"travelTime":null,"postcode":[3037,3875]},{"lat":-37.7409833,"lng":144.8858274,"name":"Niddrie","types":"['locality', 'political']","placeID":"ChIJH_qinBpc1moRANSMIXVWBAU","state":"VIC","distance":null,"travelTime":null,"postcode":[3042]},{"lat":-37.7535628,"lng":144.886126,"name":"Essendon West","types":"['locality', 'political']","placeID":"ChIJDfNT0SRc1moRoNSMIXVWBAU","state":"VIC","distance":null,"travelTime":null,"postcode":[3040]},{"lat":-37.7941207,"lng":144.9276659,"name":"Kensington","types":"['locality', 'political']","placeID":"ChIJfaTcgQ5d1moRcOeMIXVWBAU","state":"VIC","distance":null,"travelTime":null,"postcode":[3031]},{"lat":-37.7130105,"lng":144.8969949,"name":"Strathmore Heights","types":"['locality', 'political']","placeID":"ChIJgdj3iZtb1moREP2MIXVWBAU","state":"VIC","distance":null,"travelTime":null,"postcode":[3041]},{"lat":-37.2526822,"lng":144.5449107,"name":"Pipers Creek","types":"['locality', 'political']","placeID":"ChIJ9wx3RWwa12oRUIKgMKR5BQQ","state":"VIC","distance":null,"travelTime":null,"postcode":[3444]},{"lat":-38.3542356,"lng":144.9556145,"name":"Arthurs Seat","types":"['locality', 'political']","placeID":"ChIJTQAIWB3G1WoR0PyMIXVWBAU","state":"VIC","distance":null,"travelTime":null,"postcode":[3936]},{"lat":-37.767131,"lng":144.9248074,"name":"Moonee Ponds","types":"['locality', 'political']","placeID":"ChIJV8DefPZc1moRENaMIXVWBAU","state":"VIC","distance":null,"travelTime":null,"postcode":[3039]},{"lat":-38.1466246,"lng":145.135722,"name":"Frankston","types":"['locality', 'political']","placeID":"ChIJg0bUSCoL1moRQOKMIXVWBAU","state":"VIC","distance":null,"travelTime":null,"postcode":[3199]},{"lat":-37.8622254,"lng":144.7479385,"name":"Williams Landing","types":"['locality', 'political']","placeID":"ChIJ4-HTCqmJ1moR8ACNIXVWBAU","state":"VIC","distance":null,"travelTime":null,"postcode":[3027]},{"lat":-37.7154012,"lng":144.7727271,"name":"Delahey","types":"['locality', 'political']","placeID":"ChIJVUebxI711moR0NKMIXVWBAU","state":"VIC","distance":null,"travelTime":null,"postcode":[3037]},{"lat":-37.3651202,"lng":145.5361071,"name":"Murrindindi","types":"['locality', 'political']","placeID":"ChIJLU_fgRUfKGsRMIGgMKR5BQQ","state":"VIC","distance":null,"travelTime":null,"postcode":[3717]},{"lat":-37.68298,"lng":144.5500157,"name":"Melton West","types":"['locality', 'political']","placeID":"ChIJPfhmUuvs1moR4NCMIXVWBAU","state":"VIC","distance":null,"travelTime":null,"postcode":[3337]},{"lat":-37.5626604,"lng":143.8657374,"name":"Bakery Hill","types":"['locality', 'political']","placeID":"ChIJnTcx9f9E0WoRYNagMKR5BQU","state":"VIC","distance":null,"travelTime":null,"postcode":[3350,3354]},{"lat":-37.6960332,"lng":145.0853694,"name":"Watsonia North","types":"['locality', 'political']","placeID":"ChIJF6mPUPBI1moR4P2MIXVWBAU","state":"VIC","distance":null,"travelTime":null,"postcode":[3087]},{"lat":-37.7603346,"lng":144.8956625,"name":"Aberfeldie","types":"['locality', 'political']","placeID":"ChIJx42U2C5c1moRQP2MIXVWBAU","state":"VIC","distance":null,"travelTime":null,"postcode":[3040]},{"lat":-37.4066923,"lng":144.9798236,"name":"Wallan","types":"['locality', 'political']","placeID":"ChIJ34-1JEil12oRwIWgMKR5BQQ","state":"VIC","distance":null,"travelTime":null,"postcode":[3756]},{"lat":-37.3587321,"lng":144.0889539,"name":"Eganstown","types":"['locality', 'political']","placeID":"ChIJCaA5sLfS1moRkNKgMKR5BQU","state":"VIC","distance":null,"travelTime":null,"postcode":[3461]},{"lat":-38.2265871,"lng":144.6491334,"name":"Swan Bay","types":"['locality', 'political']","placeID":"ChIJU_z13dsw1GoRMPuMIXVWBAU","state":"VIC","distance":null,"travelTime":null,"postcode":[3225]},{"lat":-37.4737392,"lng":144.9745766,"name":"Beveridge","types":"['locality', 'political']","placeID":"ChIJ7RtD0lyw12oRUHegMKR5BQQ","state":"VIC","distance":null,"travelTime":null,"postcode":[3753]},{"lat":-37.8768379,"lng":145.4777631,"name":"Macclesfield","types":"['locality', 'political']","placeID":"ChIJab25I4on1moRsNqMIXVWBAU","state":"VIC","distance":null,"travelTime":null,"postcode":[3782]},{"lat":-38.2111153,"lng":144.3019017,"name":"Waurn Ponds","types":"['locality', 'political']","placeID":"ChIJH06-dkht1GoRQOSMIXVWBAU","state":"VIC","distance":null,"travelTime":null,"postcode":[3216]},{"lat":-38.3544698,"lng":145.1955436,"name":"Crib Point","types":"['locality', 'political']","placeID":"ChIJ6aJM6lzm1WoRwOWMIXVWBAU","state":"VIC","distance":null,"travelTime":null,"postcode":[3919]},{"lat":-38.3388408,"lng":145.1761518,"name":"Bittern","types":"['locality', 'political']","placeID":"ChIJYRUCiszn1WoRgOWMIXVWBAU","state":"VIC","distance":null,"travelTime":null,"postcode":[3918]},{"lat":-37.8804219,"lng":144.7572402,"name":"Seabrook","types":"['locality', 'political']","placeID":"ChIJtZZfXVuI1moRoPuMIXVWBAU","state":"VIC","distance":null,"travelTime":null,"postcode":[3028]},{"lat":-38.4805974,"lng":144.0252586,"name":"Eastern View","types":"['locality', 'political']","placeID":"ChIJaddFFydl02oRMMSgMKR5BQQ","state":"VIC","distance":null,"travelTime":null,"postcode":[3231]},{"lat":-37.4036917,"lng":144.8944228,"name":"Darraweit Guim","types":"['locality', 'political']","placeID":"ChIJ5c8YlGml12oREHqgMKR5BQQ","state":"VIC","distance":null,"travelTime":null,"postcode":[3756]},{"lat":-37.7200817,"lng":144.8514577,"name":"Keilor Park","types":"['locality', 'political']","placeID":"ChIJOVsbjklZ1moRMNKMIXVWBAU","state":"VIC","distance":null,"travelTime":null,"postcode":[3042]},{"lat":-38.0776708,"lng":145.4818724,"name":"Pakenham","types":"['locality', 'political']","placeID":"ChIJxUv0xoYb1moRsOCMIXVWBAU","state":"VIC","distance":null,"travelTime":null,"postcode":[3810]},{"lat":-37.6399652,"lng":144.8809167,"name":"Greenvale","types":"['locality', 'political']","placeID":"ChIJnRGcI7VQ1moRsM-MIXVWBAU","state":"VIC","distance":null,"travelTime":null,"postcode":[3059]},{"lat":-37.7233543,"lng":144.8077931,"name":"Keilor Downs","types":"['locality', 'political']","placeID":"ChIJgZ672kFf1moR8NKMIXVWBAU","state":"VIC","distance":null,"travelTime":null,"postcode":[3038]},{"lat":-38.0601124,"lng":145.4100456,"name":"Officer","types":"['locality', 'political']","placeID":"ChIJn1De2q0e1moRkOCMIXVWBAU","state":"VIC","distance":null,"travelTime":null,"postcode":[3809]},{"lat":-37.7072243,"lng":144.9669297,"name":"Fawkner","types":"['locality', 'political']","placeID":"ChIJfQdMbzJF1moR8NGMIXVWBAU","state":"VIC","distance":null,"travelTime":null,"postcode":[3060]},{"lat":-38.1395597,"lng":145.488542,"name":"Pakenham South","types":"['locality', 'political']","placeID":"ChIJc7bct5niKWsRcA8MS9xEwHE","state":"VIC","distance":null,"travelTime":null,"postcode":[3810]},{"lat":-37.3083472,"lng":144.0947684,"name":"Basalt","types":"['locality', 'political']","placeID":"ChIJg3l34qDU1moRAHegMKR5BQQ","state":"VIC","distance":null,"travelTime":null,"postcode":[3460]},{"lat":-37.6973477,"lng":144.7811982,"name":"Taylors Lakes","types":"['locality', 'political']","placeID":"ChIJd5QcKatY1moRsNGMIXVWBAU","state":"VIC","distance":null,"travelTime":null,"postcode":[3038]},{"lat":-37.6957207,"lng":144.555669,"name":"Brookfield","types":"['locality', 'political']","placeID":"ChIJ7-A2zUCT1moR4PmMIXVWBAU","state":"VIC","distance":null,"travelTime":null,"postcode":[3338]},{"lat":-37.7342495,"lng":144.9187635,"name":"Strathmore","types":"['locality', 'political']","placeID":"ChIJGTu3gpxb1moRsNKMIXVWBAU","state":"VIC","distance":null,"travelTime":null,"postcode":[3041]},{"lat":-37.670639,"lng":144.7539564,"name":"Calder Park","types":"['locality', 'political']","placeID":"ChIJZ2xHum321moR8PmMIXVWBAU","state":"VIC","distance":null,"travelTime":null,"postcode":[3037]},{"lat":-37.8343443,"lng":144.9559035,"name":"South Melbourne","types":"['locality', 'political']","placeID":"ChIJYZwbBPxn1moRUOiMIXVWBAU","state":"VIC","distance":null,"travelTime":null,"postcode":[3205]},{"lat":-38.5050511,"lng":145.4998689,"name":"Woolamai","types":"['locality', 'political']","placeID":"ChIJV0ZFOrYJKmsRYHGgMKR5BQQ","state":"VIC","distance":null,"travelTime":null,"postcode":[3995]},{"lat":-37.6070811,"lng":144.5901588,"name":"Toolern Vale","types":"['locality', 'political']","placeID":"ChIJ50B8KDTu1moR8M6MIXVWBAU","state":"VIC","distance":null,"travelTime":null,"postcode":[3337]},{"lat":-38.0442971,"lng":144.1736678,"name":"Bannockburn","types":"['locality', 'political']","placeID":"ChIJdWkGXHQJ1GoR4HGgMKR5BQQ","state":"VIC","distance":null,"travelTime":null,"postcode":[3331]},{"lat":-37.4235781,"lng":145.0563027,"name":"Upper Plenty","types":"['locality', 'political']","placeID":"ChIJ7Z8hNoO512oRoIWgMKR5BQQ","state":"VIC","distance":null,"travelTime":null,"postcode":[3756]},{"lat":-37.7851089,"lng":145.3111028,"name":"Mooroolbark","types":"['locality', 'political']","placeID":"ChIJZ_LZUsMv1moRQNaMIXVWBAU","state":"VIC","distance":null,"travelTime":null,"postcode":[3138]},{"lat":-37.941898,"lng":145.0601734,"name":"Moorabbin","types":"['locality', 'political']","placeID":"ChIJA-4YjQZs1moRMN6MIXVWBAU","state":"VIC","distance":null,"travelTime":null,"postcode":[3189]},{"lat":-37.7262448,"lng":145.2111268,"name":"North Warrandyte","types":"['locality', 'political']","placeID":"ChIJH_E1Nysx1moRQNOMIXVWBAU","state":"VIC","distance":null,"travelTime":null,"postcode":[3113]},{"lat":-37.6388858,"lng":144.8086604,"name":"Bulla","types":"['locality', 'political']","placeID":"ChIJCfMunRxY1moRgPeMIXVWBAU","state":"VIC","distance":null,"travelTime":null,"postcode":[3428]},{"lat":-37.8407327,"lng":146.2651379,"name":"Baw Baw Village","types":"['locality', 'political']","placeID":"ChIJjfAEDqn5KGsRIFqgMKR5BQQ","state":"VIC","distance":null,"travelTime":null,"postcode":[3833]},{"lat":-37.8098194,"lng":145.3422414,"name":"Montrose","types":"['locality', 'political']","placeID":"ChIJB3vwd3wl1moRsNeMIXVWBAU","state":"VIC","distance":null,"travelTime":null,"postcode":[3765]},{"lat":-38.1141681,"lng":145.8931423,"name":"Drouin East","types":"['locality', 'political']","placeID":"ChIJuYVPU-C_KWsRgF2gMKR5BQQ","state":"VIC","distance":null,"travelTime":null,"postcode":[3818]},{"lat":-37.9338333,"lng":145.0031893,"name":"Hampton","types":"['locality', 'political']","placeID":"ChIJnWEb9N5u1moRgN6MIXVWBAU","state":"VIC","distance":null,"travelTime":null,"postcode":[3188]},{"lat":-38.1635458,"lng":145.9309014,"name":"Warragul","types":"['locality', 'political']","placeID":"ChIJx3PHUIq9KWsRoGqgMKR5BQQ","state":"VIC","distance":null,"travelTime":null,"postcode":[3820]},{"lat":-37.7930182,"lng":144.5570412,"name":"Eynesbury","types":"['locality', 'political']","placeID":"ChIJLQUEcCSR1moRgPiMIXVWBAU","state":"VIC","distance":null,"travelTime":null,"postcode":[3338]},{"lat":-37.2590809,"lng":144.8827548,"name":"Willowmavin","types":"['locality', 'political']","placeID":"ChIJ8UaNC2Gj12oRgIagMKR5BQQ","state":"VIC","distance":null,"travelTime":null,"postcode":[3764]},{"lat":-37.6763789,"lng":144.4463206,"name":"Bacchus Marsh","types":"['colloquial_area', 'locality', 'political']","placeID":"ChIJZXHYgWuV1moRANCMIXVWBAU","state":"VIC","distance":null,"travelTime":null,"postcode":[3340]},{"lat":-37.6776685,"lng":144.8989873,"name":"Westmeadows","types":"['locality', 'political']","placeID":"ChIJSQQ3yHJa1moR0NCMIXVWBAU","state":"VIC","distance":null,"travelTime":null,"postcode":[3049]},{"lat":-38.1022116,"lng":145.2538591,"name":"Cranbourne West","types":"['locality', 'political']","placeID":"ChIJNUl8dkEO1moRIP6MIXVWBAU","state":"VIC","distance":null,"travelTime":null,"postcode":[3977]},{"lat":-37.4220132,"lng":144.2141072,"name":"Bullarto South","types":"['locality', 'political']","placeID":"ChIJa7aKhvTa1moR4HegMKR5BQQ","state":"VIC","distance":null,"travelTime":null,"postcode":[3461]},{"lat":-37.7029022,"lng":144.5749646,"name":"Melton South","types":"['locality', 'political']","placeID":"ChIJYR_0uMGS1moRoNGMIXVWBAU","state":"VIC","distance":null,"travelTime":null,"postcode":[3338]},{"lat":-37.9078779,"lng":145.1107218,"name":"Huntingdale","types":"['locality', 'political']","placeID":"ChIJsxXQwu1q1moRMPmMIXVWBAU","state":"VIC","distance":null,"travelTime":null,"postcode":[3166]},{"lat":-37.8849536,"lng":145.0059691,"name":"Elsternwick","types":"['locality', 'political']","placeID":"ChIJBdG5Fkpo1moRINyMIXVWBAU","state":"VIC","distance":null,"travelTime":null,"postcode":[3185]},{"lat":-37.9414172,"lng":145.1261833,"name":"Clayton South","types":"['locality', 'political']","placeID":"ChIJ0ft3HKJs1moRcN6MIXVWBAU","state":"VIC","distance":null,"travelTime":null,"postcode":[3169]},{"lat":-38.133859,"lng":144.6160015,"name":"Bellarine","types":"['locality', 'political']","placeID":"ChIJb3WNYoUv1GoRYPuMIXVWBAU","state":"VIC","distance":null,"travelTime":null,"postcode":[3221,3223]},{"lat":-37.9189855,"lng":146.0042876,"name":"Neerim North","types":"['locality', 'political']","placeID":"ChIJPTluX6itKWsRgGWgMKR5BQQ","state":"VIC","distance":null,"travelTime":null,"postcode":[3821,3832]},{"lat":-37.2913266,"lng":144.1241935,"name":"Elevated Plains","types":"['locality', 'political']","placeID":"ChIJNZI_-VDU1moRUNKgMKR5BQU","state":"VIC","distance":null,"travelTime":null,"postcode":[3461]},{"lat":-37.8822486,"lng":144.9825759,"name":"Elwood","types":"['locality', 'political']","placeID":"ChIJHdYdf_No1moR4NuMIXVWBAU","state":"VIC","distance":null,"travelTime":null,"postcode":[3184]},{"lat":-37.9847811,"lng":145.2139907,"name":"Dandenong","types":"['locality', 'political']","placeID":"ChIJnx73HP4T1moRgN-MIXVWBAU","state":"VIC","distance":null,"travelTime":null,"postcode":[3175]},{"lat":-37.7566014,"lng":145.0696116,"name":"Heidelberg","types":"['locality', 'political']","placeID":"ChIJMedhIGhG1moR8NSMIXVWBAU","state":"VIC","distance":null,"travelTime":null,"postcode":[3084]},{"lat":-37.6703725,"lng":145.071113,"name":"Mill Park","types":"['locality', 'political']","placeID":"ChIJMTS1RzlJ1moRgNCMIXVWBAU","state":"VIC","distance":null,"travelTime":null,"postcode":[3082]},{"lat":-37.6714404,"lng":145.8542747,"name":"Reefton","types":"['locality', 'political']","placeID":"ChIJqyNCIfw3KGsRUHCgMKR5BQQ","state":"VIC","distance":null,"travelTime":null,"postcode":[3799]},{"lat":-37.6089145,"lng":145.18278,"name":"Nutfield","types":"['locality', 'political']","placeID":"ChIJm1YOcSnL12oRUM-MIXVWBAU","state":"VIC","distance":null,"travelTime":null,"postcode":[3099]},{"lat":-38.3539466,"lng":145.0753186,"name":"Merricks North","types":"['locality', 'political']","placeID":"ChIJr_BqRKrd1WoRcOWMIXVWBAU","state":"VIC","distance":null,"travelTime":null,"postcode":[3926]},{"lat":-37.7670374,"lng":144.9621035,"name":"Brunswick","types":"['locality', 'political']","placeID":"ChIJaamxJ7lc1moRsNWMIXVWBAU","state":"VIC","distance":null,"travelTime":null,"postcode":[3056]},{"lat":-38.4144794,"lng":144.8237955,"name":"St Andrews Beach","types":"['locality', 'political']","placeID":"ChIJP1720VS01WoRcPuMIXVWBAU","state":"VIC","distance":null,"travelTime":null,"postcode":[3941]},{"lat":-37.2364276,"lng":144.9341581,"name":"Moranding","types":"['locality', 'political']","placeID":"ChIJq2kL9ECY12oRkICgMKR5BQQ","state":"VIC","distance":null,"travelTime":null,"postcode":[3764]},{"lat":-38.3770039,"lng":144.8511613,"name":"Tootgarook","types":"['locality', 'political']","placeID":"ChIJYXiezhLK1WoRQOaMIXVWBAU","state":"VIC","distance":null,"travelTime":null,"postcode":[3941]},{"lat":-38.398886,"lng":145.1085522,"name":"Merricks Beach","types":"['locality', 'political']","placeID":"ChIJ6Yh5UTzC1WoRYOqMIXVWBAU","state":"VIC","distance":null,"travelTime":null,"postcode":[3926]},{"lat":-37.9187107,"lng":145.158814,"name":"Mulgrave","types":"['locality', 'political']","placeID":"ChIJVw-CZnQV1moRgN2MIXVWBAU","state":"VIC","distance":null,"travelTime":null,"postcode":[3170]},{"lat":-38.1734479,"lng":144.5428901,"name":"Curlewis","types":"['locality', 'political']","placeID":"ChIJJ4ehSXQ81GoRwOKMIXVWBAU","state":"VIC","distance":null,"travelTime":null,"postcode":[3222]},{"lat":-38.175866,"lng":144.3904708,"name":"Whittington","types":"['locality', 'political']","placeID":"ChIJQbBWyFsU1GoRUOOMIXVWBAU","state":"VIC","distance":null,"travelTime":null,"postcode":[3219]},{"lat":-37.2883596,"lng":144.9799104,"name":"Kilmore East","types":"['locality', 'political']","placeID":"ChIJN1zCpua812oREH6gMKR5BQQ","state":"VIC","distance":null,"travelTime":null,"postcode":[3764]},{"lat":-37.9016644,"lng":145.091857,"name":"Oakleigh","types":"['locality', 'political']","placeID":"ChIJocuG0vVq1moR0NyMIXVWBAU","state":"VIC","distance":null,"travelTime":null,"postcode":[3166]},{"lat":-38.1492994,"lng":144.3598426,"name":"Geelong","types":"['locality', 'political']","placeID":"ChIJz9ClKRwU1GoRkOmMIXVWBAU","state":"VIC","distance":null,"travelTime":null,"postcode":[3220]},{"lat":-38.6338882,"lng":143.8911379,"name":"Wye River","types":"['locality', 'political']","placeID":"ChIJOylPBNFo02oRcNCgMKR5BQQ","state":"VIC","distance":null,"travelTime":null,"postcode":[3221,3234]},{"lat":-37.817902,"lng":145.3667433,"name":"Kalorama","types":"['locality', 'political']","placeID":"ChIJuQB-L2cv1moRwOeMIXVWBAU","state":"VIC","distance":null,"travelTime":null,"postcode":[3766]},{"lat":-37.8974859,"lng":145.6690337,"name":"Beenak","types":"['locality', 'political']","placeID":"ChIJy39h-XHQKWsREG2gMKR5BQQ","state":"VIC","distance":null,"travelTime":null,"postcode":[3139]},{"lat":-38.1674275,"lng":144.3752713,"name":"Thomson","types":"['locality', 'political']","placeID":"ChIJ0U_tUUYU1GoRAOOMIXVWBAU","state":"VIC","distance":null,"travelTime":null,"postcode":[3219,3825]},{"lat":-37.9627894,"lng":144.5011493,"name":"Little River","types":"['locality', 'political']","placeID":"ChIJc0_e3Fae1moR8N2MIXVWBAU","state":"VIC","distance":null,"travelTime":null,"postcode":[3211]},{"lat":-37.8438609,"lng":144.9514536,"name":"Albert Park","types":"['locality', 'political']","placeID":"ChIJvSWt3uFn1moRoOiMIXVWBAU","state":"VIC","distance":null,"travelTime":null,"postcode":[3206]},{"lat":-38.0410888,"lng":144.424764,"name":"Avalon","types":"['locality', 'political']","placeID":"ChIJTyj_UqUj1GoRoOCMIXVWBAU","state":"VIC","distance":null,"travelTime":null,"postcode":[3212]},{"lat":-38.0229202,"lng":144.3964232,"name":"Lara","types":"['locality', 'political']","placeID":"ChIJga_L64wY1GoREN-MIXVWBAU","state":"VIC","distance":null,"travelTime":null,"postcode":[3212]},{"lat":-37.3539783,"lng":145.0255884,"name":"Wandong","types":"['locality', 'political']","placeID":"ChIJ0_Fq36K712oR4IWgMKR5BQQ","state":"VIC","distance":null,"travelTime":null,"postcode":[3758]},{"lat":-37.6980273,"lng":145.1444175,"name":"Eltham North","types":"['locality', 'political']","placeID":"ChIJq6uzHik21moRkNGMIXVWBAU","state":"VIC","distance":null,"travelTime":null,"postcode":[3095]},{"lat":-37.6625807,"lng":145.1829967,"name":"Wattle Glen","types":"['locality', 'political']","placeID":"ChIJHZnE2zA01moRkNCMIXVWBAU","state":"VIC","distance":null,"travelTime":null,"postcode":[3096]},{"lat":-37.7062465,"lng":144.9161373,"name":"Glenroy","types":"['locality', 'political']","placeID":"ChIJe1TCrrRE1moRENKMIXVWBAU","state":"VIC","distance":null,"travelTime":null,"postcode":[3046]},{"lat":-38.494357,"lng":145.6163598,"name":"Ryanston","types":"['locality', 'political']","placeID":"ChIJZ5GP1TMJKmsRYHCgMKR5BQQ","state":"VIC","distance":null,"travelTime":null,"postcode":[3992]},{"lat":-38.5633586,"lng":145.5458001,"name":"Dalyston","types":"['locality', 'political']","placeID":"ChIJh3bwAcoLKmsR0G2gMKR5BQQ","state":"VIC","distance":null,"travelTime":null,"postcode":[3992]},{"lat":-38.5505343,"lng":145.6083002,"name":"West Creek","types":"['locality', 'political']","placeID":"ChIJqTIiDO0OKmsRIHGgMKR5BQQ","state":"VIC","distance":null,"travelTime":null,"postcode":[3992]},{"lat":-37.6197619,"lng":144.3448227,"name":"Myrniong","types":"['locality', 'political']","placeID":"ChIJUYFjBtrA1moR8HSgMKR5BQQ","state":"VIC","distance":null,"travelTime":null,"postcode":[3341]},{"lat":-37.7036462,"lng":145.1806162,"name":"Research","types":"['locality', 'political']","placeID":"ChIJdTMn5PM21moR4NGMIXVWBAU","state":"VIC","distance":null,"travelTime":null,"postcode":[3095]},{"lat":-37.952909,"lng":145.5536041,"name":"Gembrook","types":"['locality', 'political']","placeID":"ChIJqRHwqbLbKWsRgNyMIXVWBAU","state":"VIC","distance":null,"travelTime":null,"postcode":[3783]},{"lat":-37.8884678,"lng":145.3177142,"name":"Tremont","types":"['locality', 'political']","placeID":"ChIJ0wfBuVUj1moRkNuMIXVWBAU","state":"VIC","distance":null,"travelTime":null,"postcode":[3785]},{"lat":-38.1336284,"lng":145.6582672,"name":"Vervale","types":"['locality', 'political']","placeID":"ChIJX7SFdgfmKWsR4HCgMKR5BQQ","state":"VIC","distance":null,"travelTime":null,"postcode":[3814]},{"lat":-37.759569,"lng":145.0004556,"name":"Thornbury","types":"['locality', 'political']","placeID":"ChIJ1fUFcWJE1moRMNWMIXVWBAU","state":"VIC","distance":null,"travelTime":null,"postcode":[3071]},{"lat":-37.6729738,"lng":145.1496294,"name":"Diamond Creek","types":"['locality', 'political']","placeID":"ChIJRw1m_PxJ1moRUNCMIXVWBAU","state":"VIC","distance":null,"travelTime":null,"postcode":[3089]},{"lat":-37.2832007,"lng":144.5020639,"name":"Carlsruhe","types":"['locality', 'political']","placeID":"ChIJQ-MOzdAb12oRoHigMKR5BQQ","state":"VIC","distance":null,"travelTime":null,"postcode":[3442]},{"lat":-37.8954903,"lng":145.3092363,"name":"Upper Ferntree Gully","types":"['locality', 'political']","placeID":"ChIJr_IKWso81moR4NyMIXVWBAU","state":"VIC","distance":null,"travelTime":null,"postcode":[3156]},{"lat":-37.8008004,"lng":144.9485049,"name":"North Melbourne","types":"['locality', 'political']","placeID":"ChIJZWnLOihd1moRYOeMIXVWBAU","state":"VIC","distance":null,"travelTime":null,"postcode":[3051]},{"lat":-36.1244699,"lng":146.8885229,"name":"Wodonga","types":"['locality', 'political']","placeID":"ChIJb97kb_tYIWsR4NOgMKR5BQU","state":"VIC","distance":null,"travelTime":null,"postcode":[3689,3690]},{"lat":-37.718984,"lng":145.1460687,"name":"Eltham","types":"['locality', 'political']","placeID":"ChIJfcIpW7Q31moRQNKMIXVWBAU","state":"VIC","distance":null,"travelTime":null,"postcode":[3095]},{"lat":-37.2374708,"lng":144.826753,"name":"Tantaraboo","types":"['locality', 'political']","placeID":"ChIJ4z_nBeOg12oRkISgMKR5BQQ","state":"VIC","distance":null,"travelTime":null,"postcode":[3764]},{"lat":-37.136598,"lng":144.3467434,"name":"Taradale","types":"['locality', 'political']","placeID":"ChIJCRhq9IQ812oRoISgMKR5BQQ","state":"VIC","distance":null,"travelTime":null,"postcode":[3447]},{"lat":-38.1620564,"lng":145.3026325,"name":"Devon Meadows","types":"['locality', 'political']","placeID":"ChIJhfxF8m8E1moRYOKMIXVWBAU","state":"VIC","distance":null,"travelTime":null,"postcode":[3977]},{"lat":-37.852403,"lng":145.0357348,"name":"Malvern","types":"['locality', 'political']","placeID":"ChIJFc4iKARC1moRMNqMIXVWBAU","state":"VIC","distance":null,"travelTime":null,"postcode":[3144]},{"lat":-38.6785432,"lng":143.7688657,"name":"Wongarra","types":"['locality', 'political']","placeID":"ChIJpZGmPetp02oRANCgMKR5BQQ","state":"VIC","distance":null,"travelTime":null,"postcode":[3221,3234]},{"lat":-37.598847,"lng":145.4878081,"name":"Chum Creek","types":"['locality', 'political']","placeID":"ChIJ64H5AyfW12oRgPqMIXVWBAU","state":"VIC","distance":null,"travelTime":null,"postcode":[3777]},{"lat":-37.0935493,"lng":145.1030077,"name":"Tallarook","types":"['locality', 'political']","placeID":"ChIJyU0_F0OS12oRgISgMKR5BQQ","state":"VIC","distance":null,"travelTime":null,"postcode":[3659]},{"lat":-37.7130745,"lng":145.5589741,"name":"Mount Toolebewong","types":"['locality', 'political']","placeID":"ChIJiaQNj0MrKGsREPuMIXVWBAU","state":"VIC","distance":null,"travelTime":null,"postcode":[3777]},{"lat":-37.5152983,"lng":145.4249594,"name":"Castella","types":"['locality', 'political']","placeID":"ChIJkUdQJLnZ12oRsHigMKR5BQQ","state":"VIC","distance":null,"travelTime":null,"postcode":[3777]},{"lat":-37.6540738,"lng":145.5168476,"name":"Healesville","types":"['locality', 'political']","placeID":"ChIJ_VQAMLYrKGsR8OaMIXVWBAU","state":"VIC","distance":null,"travelTime":null,"postcode":[3777]},{"lat":-38.0989053,"lng":145.7154637,"name":"Bunyip","types":"['locality', 'political']","placeID":"ChIJQ_LgyPrpKWsRQG2gMKR5BQQ","state":"VIC","distance":null,"travelTime":null,"postcode":[3815]},{"lat":-38.1708586,"lng":144.2722075,"name":"Ceres","types":"['locality', 'political']","placeID":"ChIJj3qC85AS1GoRMACNIXVWBAU","state":"VIC","distance":null,"travelTime":null,"postcode":[3221]},{"lat":-37.6697809,"lng":144.8855923,"name":"Attwood","types":"['locality', 'political']","placeID":"ChIJgcASqQ1a1moRgP2MIXVWBAU","state":"VIC","distance":null,"travelTime":null,"postcode":[3049]},{"lat":-37.3011891,"lng":145.0664378,"name":"Waterford Park","types":"['locality', 'political']","placeID":"ChIJVU7YbmG-12oR8IWgMKR5BQQ","state":"VIC","distance":null,"travelTime":null,"postcode":[3658]},{"lat":-38.4100055,"lng":145.4774169,"name":"Tenby Point","types":"['locality', 'political']","placeID":"ChIJ2-Nb_2H41WoRgHCgMKR5BQQ","state":"VIC","distance":null,"travelTime":null,"postcode":[3984]},{"lat":-37.1802899,"lng":144.4338619,"name":"Greenhill","types":"['locality', 'political']","placeID":"ChIJQXckIswX12oRoHygMKR5BQQ","state":"VIC","distance":null,"travelTime":null,"postcode":[3444]},{"lat":-37.9091738,"lng":144.1373052,"name":"She Oaks","types":"['locality', 'political']","placeID":"ChIJxzByi98G1GoRYHWgMKR5BQQ","state":"VIC","distance":null,"travelTime":null,"postcode":[3331]},{"lat":-37.769911,"lng":145.0893777,"name":"Bulleen","types":"['locality', 'political']","placeID":"ChIJMxupJ_tG1moRYNWMIXVWBAU","state":"VIC","distance":null,"travelTime":null,"postcode":[3105]},{"lat":-38.0977562,"lng":144.3290231,"name":"Bell Post Hill","types":"['locality', 'political']","placeID":"ChIJ3_aUYBgR1GoRcOmMIXVWBAU","state":"VIC","distance":null,"travelTime":null,"postcode":[3215]},{"lat":-37.7946578,"lng":145.0848683,"name":"Balwyn North","types":"['locality', 'political']","placeID":"ChIJN_3ci9BG1moRMNeMIXVWBAU","state":"VIC","distance":null,"travelTime":null,"postcode":[3104]},{"lat":-37.9315679,"lng":144.1676703,"name":"Maude","types":"['locality', 'political']","placeID":"ChIJTc88WcUG1GoRQHSgMKR5BQQ","state":"VIC","distance":null,"travelTime":null,"postcode":[3331]},{"lat":-37.7450963,"lng":145.0028571,"name":"Preston","types":"['locality', 'political']","placeID":"ChIJ-ZIQ51ZE1moRwNOMIXVWBAU","state":"VIC","distance":null,"travelTime":null,"postcode":[3072]},{"lat":-37.7166681,"lng":145.0077608,"name":"Reservoir","types":"['locality', 'political']","placeID":"ChIJx3y26INF1moRANKMIXVWBAU","state":"VIC","distance":null,"travelTime":null,"postcode":[3073]},{"lat":-37.8507947,"lng":145.0027616,"name":"Prahran","types":"['locality', 'political']","placeID":"ChIJtXAyhyNo1moR4OiMIXVWBAU","state":"VIC","distance":null,"travelTime":null,"postcode":[3181]},{"lat":-37.6858788,"lng":144.9246674,"name":"Broadmeadows","types":"['locality', 'political']","placeID":"ChIJ6U9XEepb1moR8NCMIXVWBAU","state":"VIC","distance":null,"travelTime":null,"postcode":[3047]},{"lat":-38.1307674,"lng":144.3548962,"name":"Drumcondra","types":"['locality', 'political']","placeID":"ChIJe0gJGrEW1GoR0PqMIXVWBAU","state":"VIC","distance":null,"travelTime":null,"postcode":[3215]},{"lat":-37.8128937,"lng":145.0813238,"name":"Balwyn","types":"['locality', 'political']","placeID":"ChIJQ71lNTtB1moRMNiMIXVWBAU","state":"VIC","distance":null,"travelTime":null,"postcode":[3103]},{"lat":-37.8758169,"lng":144.1780407,"name":"Steiglitz","types":"['locality', 'political']","placeID":"ChIJN-2pCOcB1GoRoHWgMKR5BQQ","state":"VIC","distance":null,"travelTime":null,"postcode":[3331]},{"lat":-37.954525,"lng":145.1908285,"name":"Noble Park North","types":"['locality', 'political']","placeID":"ChIJGUvTsnQU1moRMP-MIXVWBAU","state":"VIC","distance":null,"travelTime":null,"postcode":[3174]},{"lat":-38.391205,"lng":145.1238108,"name":"Balnarring Beach","types":"['locality', 'political']","placeID":"ChIJS4gxqBPC1WoRUOqMIXVWBAU","state":"VIC","distance":null,"travelTime":null,"postcode":[3926]},{"lat":-38.0166931,"lng":144.1821017,"name":"Russells Bridge","types":"['locality', 'political']","placeID":"ChIJ35YRDTEE1GoRMHWgMKR5BQQ","state":"VIC","distance":null,"travelTime":null,"postcode":[3331]},{"lat":-38.1112212,"lng":144.3502279,"name":"North Geelong","types":"['locality', 'political']","placeID":"ChIJfVac8ZsR1GoR4OmMIXVWBAU","state":"VIC","distance":null,"travelTime":null,"postcode":[3215]},{"lat":-37.9876769,"lng":145.2394075,"name":"Doveton","types":"['locality', 'political']","placeID":"ChIJbXJaoqYW1moRcN-MIXVWBAU","state":"VIC","distance":null,"travelTime":null,"postcode":[3177]},{"lat":-38.1515545,"lng":144.5738608,"name":"Clifton Springs","types":"['locality', 'political']","placeID":"ChIJg10uoFIl1GoRMOKMIXVWBAU","state":"VIC","distance":null,"travelTime":null,"postcode":[3222]},{"lat":-37.1261705,"lng":144.6173272,"name":"Baynton","types":"['locality', 'political']","placeID":"ChIJj_GVSAQN12oREHegMKR5BQQ","state":"VIC","distance":null,"travelTime":null,"postcode":[3444]},{"lat":-38.1219561,"lng":144.3280346,"name":"Hamlyn Heights","types":"['locality', 'political']","placeID":"ChIJCUVR8UER1GoRoOmMIXVWBAU","state":"VIC","distance":null,"travelTime":null,"postcode":[3215]},{"lat":-37.9145479,"lng":145.127492,"name":"Clayton","types":"['locality', 'political']","placeID":"ChIJhemuV9Zq1moRwN2MIXVWBAU","state":"VIC","distance":null,"travelTime":null,"postcode":[3168]},{"lat":-37.7245645,"lng":144.533784,"name":"Exford","types":"['locality', 'political']","placeID":"ChIJ-ROPFaGT1moRkNKMIXVWBAU","state":"VIC","distance":null,"travelTime":null,"postcode":[3338]},{"lat":-38.0680914,"lng":145.1451427,"name":"Patterson Lakes","types":"['locality', 'political']","placeID":"ChIJwyDqdTEN1moRYOGMIXVWBAU","state":"VIC","distance":null,"travelTime":null,"postcode":[3197]},{"lat":-37.1849021,"lng":144.4746217,"name":"Edgecombe","types":"['locality', 'political']","placeID":"ChIJx0cSj7oX12oR0HqgMKR5BQQ","state":"VIC","distance":null,"travelTime":null,"postcode":[3444]},{"lat":-38.2143766,"lng":145.9143175,"name":"Warragul South","types":"['locality', 'political']","placeID":"ChIJ--JJDaCWKWsRsGqgMKR5BQQ","state":"VIC","distance":null,"travelTime":null,"postcode":[3821]},{"lat":-37.0460525,"lng":145.29702,"name":"Whiteheads Creek","types":"['locality', 'political']","placeID":"ChIJRf9LO1v312oRYIagMKR5BQQ","state":"VIC","distance":null,"travelTime":null,"postcode":[3660]},{"lat":-37.3506564,"lng":144.3703119,"name":"Tylden South","types":"['locality', 'political']","placeID":"ChIJ97DrAhTf1moRgIWgMKR5BQQ","state":"VIC","distance":null,"travelTime":null,"postcode":[3444]},{"lat":-37.6458492,"lng":144.2918582,"name":"Ingliston","types":"['locality', 'political']","placeID":"ChIJsUISUEq51moRsHOgMKR5BQQ","state":"VIC","distance":null,"travelTime":null,"postcode":[3342]},{"lat":-38.0807597,"lng":145.2042243,"name":"Sandhurst","types":"['locality', 'political']","placeID":"ChIJkTYieeoN1moRcACNIXVWBAU","state":"VIC","distance":null,"travelTime":null,"postcode":[3977]},{"lat":-37.1245802,"lng":144.7100352,"name":"Baynton East","types":"['locality', 'political']","placeID":"ChIJ2eLn-4x012oRIHegMKR5BQQ","state":"VIC","distance":null,"travelTime":null,"postcode":[3444]},{"lat":-37.7451181,"lng":144.2218243,"name":"Mount Wallace","types":"['locality', 'political']","placeID":"ChIJ0eKBries1moR0HSgMKR5BQQ","state":"VIC","distance":null,"travelTime":null,"postcode":[3342]},{"lat":-37.0862808,"lng":144.6090648,"name":"Glenhope","types":"['locality', 'political']","placeID":"ChIJoZczf_Zt12oR8HugMKR5BQQ","state":"VIC","distance":null,"travelTime":null,"postcode":[3444]},{"lat":-37.2752066,"lng":144.1096314,"name":"Shepherds Flat","types":"['locality', 'political']","placeID":"ChIJBwSkvj3V1moRUIOgMKR5BQQ","state":"VIC","distance":null,"travelTime":null,"postcode":[3461]},{"lat":-37.5796345,"lng":144.0998359,"name":"Gordon","types":"['locality', 'political']","placeID":"ChIJMYxWvd611moRgHOgMKR5BQQ","state":"VIC","distance":null,"travelTime":null,"postcode":[3345]},{"lat":-38.1363724,"lng":145.2944402,"name":"Junction Village","types":"['locality', 'political']","placeID":"ChIJyXwbKw0P1moR0PuMIXVWBAU","state":"VIC","distance":null,"travelTime":null,"postcode":[3977]},{"lat":-38.0741368,"lng":144.358638,"name":"Corio","types":"['locality', 'political']","placeID":"ChIJBdf6JNsZ1GoRMOGMIXVWBAU","state":"VIC","distance":null,"travelTime":null,"postcode":[3214]},{"lat":-38.5079933,"lng":145.2916183,"name":"Surf Beach","types":"['locality', 'political']","placeID":"ChIJe6kwmnPt1WoRoNSgMKR5BQU","state":"VIC","distance":null,"travelTime":null,"postcode":[3922]},{"lat":-37.480271,"lng":144.1508082,"name":"Spargo Creek","types":"['locality', 'political']","placeID":"ChIJAfdelJbL1moRcHWgMKR5BQQ","state":"VIC","distance":null,"travelTime":null,"postcode":[3461]},{"lat":-37.7181881,"lng":145.1233671,"name":"Montmorency","types":"['locality', 'political']","placeID":"ChIJecYSYzpI1moRwNKMIXVWBAU","state":"VIC","distance":null,"travelTime":null,"postcode":[3094]},{"lat":-37.5612043,"lng":144.3403433,"name":"Korobeit","types":"['locality', 'political']","placeID":"ChIJB-cy4TLB1moRwHOgMKR5BQQ","state":"VIC","distance":null,"travelTime":null,"postcode":[3341]},{"lat":-37.7412988,"lng":144.9666108,"name":"Coburg","types":"['locality', 'political']","placeID":"ChIJ69X0mMBE1moRMNSMIXVWBAU","state":"VIC","distance":null,"travelTime":null,"postcode":[3058]},{"lat":-37.5674767,"lng":144.3259489,"name":"Greendale","types":"['locality', 'political']","placeID":"ChIJD6kySwPE1moRkHOgMKR5BQQ","state":"VIC","distance":null,"travelTime":null,"postcode":[3341]},{"lat":-38.3732839,"lng":144.8176554,"name":"Rye","types":"['locality', 'political']","placeID":"ChIJPyVUXgu11WoRMOaMIXVWBAU","state":"VIC","distance":null,"travelTime":null,"postcode":[3941]},{"lat":-38.1510042,"lng":145.1803134,"name":"Langwarrin","types":"['locality', 'political']","placeID":"ChIJqzXoLKML1moRIOKMIXVWBAU","state":"VIC","distance":null,"travelTime":null,"postcode":[3910]},{"lat":-37.7273944,"lng":144.9637677,"name":"Coburg North","types":"['locality', 'political']","placeID":"ChIJoZ5COCNF1moRUNOMIXVWBAU","state":"VIC","distance":null,"travelTime":null,"postcode":[3058]},{"lat":-37.0251166,"lng":145.1349899,"name":"Seymour","types":"['locality', 'political']","placeID":"ChIJj7jdcxf112oR4NGgMKR5BQU","state":"VIC","distance":null,"travelTime":null,"postcode":[3660,3661]},{"lat":-37.829834,"lng":145.2447702,"name":"Heathmont","types":"['locality', 'political']","placeID":"ChIJQxs70cA71moRcNmMIXVWBAU","state":"VIC","distance":null,"travelTime":null,"postcode":[3135]},{"lat":-37.7339392,"lng":144.447961,"name":"Parwan","types":"['locality', 'political']","placeID":"ChIJEXPvVkKW1moRoPmMIXVWBAU","state":"VIC","distance":null,"travelTime":null,"postcode":[3340]},{"lat":-38.19519,"lng":145.1567199,"name":"Baxter","types":"['locality', 'political']","placeID":"ChIJUWDEduML1moRcOOMIXVWBAU","state":"VIC","distance":null,"travelTime":null,"postcode":[3911]},{"lat":-37.6637557,"lng":144.3867562,"name":"Pentland Hills","types":"['locality', 'political']","placeID":"ChIJmyzHURK_1moRgPmMIXVWBAU","state":"VIC","distance":null,"travelTime":null,"postcode":[3341]},{"lat":-37.930598,"lng":145.3595275,"name":"Belgrave South","types":"['locality', 'political']","placeID":"ChIJM0V6xvUi1moRYN6MIXVWBAU","state":"VIC","distance":null,"travelTime":null,"postcode":[3160]},{"lat":-37.9066054,"lng":145.3439874,"name":"Tecoma","types":"['locality', 'political']","placeID":"ChIJW3aDghQj1moRAN2MIXVWBAU","state":"VIC","distance":null,"travelTime":null,"postcode":[3160]},{"lat":-37.5210533,"lng":144.3053358,"name":"Dales Creek","types":"['locality', 'political']","placeID":"ChIJDw0KJNPF1moR4HKgMKR5BQQ","state":"VIC","distance":null,"travelTime":null,"postcode":[3341]},{"lat":-38.1930816,"lng":145.183001,"name":"Langwarrin South","types":"['locality', 'political']","placeID":"ChIJ8QBIFAsL1moRwPuMIXVWBAU","state":"VIC","distance":null,"travelTime":null,"postcode":[3911]},{"lat":-37.8197129,"lng":145.1530529,"name":"Blackburn","types":"['locality', 'political']","placeID":"ChIJB7Q5LrQ41moRoNiMIXVWBAU","state":"VIC","distance":null,"travelTime":null,"postcode":[3130]},{"lat":-37.9982086,"lng":144.2125364,"name":"Sutherlands Creek","types":"['locality', 'political']","placeID":"ChIJXblnfX8F1GoR4P-MIXVWBAU","state":"VIC","distance":null,"travelTime":null,"postcode":[3331]},{"lat":-38.3528335,"lng":144.9328674,"name":"McCrae","types":"['locality', 'political']","placeID":"ChIJ26k7FMbI1WoR0OWMIXVWBAU","state":"VIC","distance":null,"travelTime":null,"postcode":[]},{"lat":-37.9128827,"lng":144.9915515,"name":"Brighton","types":"['locality', 'political']","placeID":"ChIJl4xHgSJp1moRQN2MIXVWBAU","state":"VIC","distance":null,"travelTime":null,"postcode":[3186]},{"lat":-37.8509396,"lng":144.9615926,"name":"Middle Park","types":"['locality', 'political']","placeID":"ChIJ7W2p5Ohn1moR0OiMIXVWBAU","state":"VIC","distance":null,"travelTime":null,"postcode":[3206]},{"lat":-37.8303331,"lng":145.047703,"name":"Hawthorn East","types":"['locality', 'political']","placeID":"ChIJzaFs7odB1moRMNmMIXVWBAU","state":"VIC","distance":null,"travelTime":null,"postcode":[3123]},{"lat":-38.2593565,"lng":145.9192973,"name":"Ellinbank","types":"['locality', 'political']","placeID":"ChIJpYhy-tuTKWsRAF6gMKR5BQQ","state":"VIC","distance":null,"travelTime":null,"postcode":[3821]},{"lat":-37.3324772,"lng":145.1573014,"name":"Clonbinane","types":"['locality', 'political']","placeID":"ChIJNc1H3UyV12oRUHmgMKR5BQQ","state":"VIC","distance":null,"travelTime":null,"postcode":[3658]},{"lat":-37.8765878,"lng":144.9953278,"name":"Ripponlea","types":"['locality', 'political']","placeID":"ChIJlyhS8Fdo1moR8PiMIXVWBAU","state":"VIC","distance":null,"travelTime":null,"postcode":[3185]},{"lat":-38.0211738,"lng":143.8564504,"name":"Barunah Park","types":"['locality', 'political']","placeID":"ChIJiWW__obs02oRULegMKR5BQQ","state":"VIC","distance":null,"travelTime":null,"postcode":[3329]},{"lat":-38.3423857,"lng":145.7643121,"name":"Poowong","types":"['locality', 'political']","placeID":"ChIJw7hLvBn0KWsRAHCgMKR5BQQ","state":"VIC","distance":null,"travelTime":null,"postcode":[3988]},{"lat":-38.2992837,"lng":145.9564368,"name":"Ferndale","types":"['locality', 'political']","placeID":"ChIJs6UPHv6RKWsRQF6gMKR5BQQ","state":"VIC","distance":null,"travelTime":null,"postcode":[3821]},{"lat":-37.9279826,"lng":145.2330751,"name":"Rowville","types":"['locality', 'political']","placeID":"ChIJL6036CoW1moRkN2MIXVWBAU","state":"VIC","distance":null,"travelTime":null,"postcode":[3178]},{"lat":-38.5214507,"lng":145.3727924,"name":"San Remo","types":"['locality', 'political']","placeID":"ChIJc9ImdqDz1WoRQNSgMKR5BQU","state":"VIC","distance":null,"travelTime":null,"postcode":[3925]},{"lat":-37.9753329,"lng":145.5102901,"name":"Mount Burnett","types":"['locality', 'political']","placeID":"ChIJ4XIG93TfKWsRsPiMIXVWBAU","state":"VIC","distance":null,"travelTime":null,"postcode":[3781]},{"lat":-37.6661536,"lng":144.5953137,"name":"Kurunjang","types":"['locality', 'political']","placeID":"ChIJC3qUsJvt1moRYPmMIXVWBAU","state":"VIC","distance":null,"travelTime":null,"postcode":[3337]},{"lat":-37.7946018,"lng":144.4142554,"name":"Balliang East","types":"['locality', 'political']","placeID":"ChIJEZTWB6ai1moRwHGgMKR5BQQ","state":"VIC","distance":null,"travelTime":null,"postcode":[3340]},{"lat":-37.2054708,"lng":145.0453751,"name":"Broadford","types":"['locality', 'political']","placeID":"ChIJGS7vEuqW12oRsHegMKR5BQQ","state":"VIC","distance":null,"travelTime":null,"postcode":[3658]},{"lat":-37.8347413,"lng":145.1727369,"name":"Forest Hill","types":"['locality', 'political']","placeID":"ChIJi51aRyM_1moRANqMIXVWBAU","state":"VIC","distance":null,"travelTime":null,"postcode":[3131]},{"lat":-37.7409649,"lng":145.0683729,"name":"Rosanna","types":"['locality', 'political']","placeID":"ChIJyyLszdZF1moRENSMIXVWBAU","state":"VIC","distance":null,"travelTime":null,"postcode":[3084]},{"lat":-38.1584939,"lng":145.2435138,"name":"Cranbourne South","types":"['locality', 'political']","placeID":"ChIJmZyUbAUQ1moREOKMIXVWBAU","state":"VIC","distance":null,"travelTime":null,"postcode":[3977]},{"lat":-37.3414092,"lng":144.142784,"name":"Daylesford","types":"['locality', 'political']","placeID":"ChIJMcs09LvT1moRgNKgMKR5BQU","state":"VIC","distance":null,"travelTime":null,"postcode":[3460]},{"lat":-37.9656436,"lng":145.0578515,"name":"Cheltenham","types":"['locality', 'political']","placeID":"ChIJe5oTKyRs1moRIN-MIXVWBAU","state":"VIC","distance":null,"travelTime":null,"postcode":[3192]},{"lat":-37.9522614,"lng":145.0080053,"name":"Sandringham","types":"['locality', 'political']","placeID":"ChIJt3AnVfpu1moR8N6MIXVWBAU","state":"VIC","distance":null,"travelTime":null,"postcode":[3191]},{"lat":-37.8925388,"lng":145.2303752,"name":"Scoresby","types":"['locality', 'political']","placeID":"ChIJJSMsUAs-1moRMNyMIXVWBAU","state":"VIC","distance":null,"travelTime":null,"postcode":[3179]},{"lat":-38.2475105,"lng":144.6923869,"name":"Swan Island","types":"['locality', 'political']","placeID":"ChIJv4kG9-wz1GoRQPuMIXVWBAU","state":"VIC","distance":null,"travelTime":null,"postcode":[3225]},{"lat":-37.4809197,"lng":145.2615665,"name":"Kinglake West","types":"['locality', 'political']","placeID":"ChIJu4ieP9fF12oRQH6gMKR5BQQ","state":"VIC","distance":null,"travelTime":null,"postcode":[3757]},{"lat":-37.8683075,"lng":145.1054275,"name":"Ashwood","types":"['locality', 'political']","placeID":"ChIJx47WwjBA1moRENuMIXVWBAU","state":"VIC","distance":null,"travelTime":null,"postcode":[3147]},{"lat":-37.8341816,"lng":144.3566546,"name":"Balliang","types":"['locality', 'political']","placeID":"ChIJPS5smciX1moRsHGgMKR5BQQ","state":"VIC","distance":null,"travelTime":null,"postcode":[3340]},{"lat":-37.9169381,"lng":145.4739089,"name":"Avonsleigh","types":"['locality', 'political']","placeID":"ChIJ6y9u073YKWsRcN2MIXVWBAU","state":"VIC","distance":null,"travelTime":null,"postcode":[3782]},{"lat":-38.3401494,"lng":144.7365001,"name":"Sorrento","types":"['locality', 'political']","placeID":"ChIJe2-VDf001GoRkOWMIXVWBAU","state":"VIC","distance":null,"travelTime":null,"postcode":[3943]},{"lat":-37.7165119,"lng":144.91903,"name":"Oak Park","types":"['locality', 'political']","placeID":"ChIJA7tTk6Bb1moRENOMIXVWBAU","state":"VIC","distance":null,"travelTime":null,"postcode":[3046]},{"lat":-38.1236002,"lng":144.3564904,"name":"Rippleside","types":"['locality', 'political']","placeID":"ChIJVSMXtLcW1GoRwPqMIXVWBAU","state":"VIC","distance":null,"travelTime":null,"postcode":[3215]},{"lat":-37.6001469,"lng":144.2254473,"name":"Ballan","types":"['locality', 'political']","placeID":"ChIJI2DhS2q31moRoHGgMKR5BQQ","state":"VIC","distance":null,"travelTime":null,"postcode":[3342]},{"lat":-37.8163065,"lng":145.4584388,"name":"Wandin East","types":"['locality', 'political']","placeID":"ChIJpdSJvlMo1moRQNiMIXVWBAU","state":"VIC","distance":null,"travelTime":null,"postcode":[3139]},{"lat":-37.7731236,"lng":145.4987891,"name":"Seville East","types":"['locality', 'political']","placeID":"ChIJ-yyGuuTVKWsRoNWMIXVWBAU","state":"VIC","distance":null,"travelTime":null,"postcode":[3139]},{"lat":-38.3207377,"lng":144.718304,"name":"Portsea","types":"['locality', 'political']","placeID":"ChIJUZN5TAg21GoRQOWMIXVWBAU","state":"VIC","distance":null,"travelTime":null,"postcode":[3944]},{"lat":-37.3934284,"lng":144.3820546,"name":"Trentham East","types":"['locality', 'political']","placeID":"ChIJ_QXfW9bd1moRUIWgMKR5BQQ","state":"VIC","distance":null,"travelTime":null,"postcode":[3458]},{"lat":-37.9336909,"lng":145.4183363,"name":"Clematis","types":"['locality', 'political']","placeID":"ChIJmQ3CiGkh1moRwOqMIXVWBAU","state":"VIC","distance":null,"travelTime":null,"postcode":[3782]},{"lat":-37.8160228,"lng":145.1077021,"name":"Mont Albert","types":"['locality', 'political']","placeID":"ChIJAamjdcRA1moRAP6MIXVWBAU","state":"VIC","distance":null,"travelTime":null,"postcode":[3127]},{"lat":-37.8759278,"lng":145.5317966,"name":"Nangana","types":"['locality', 'political']","placeID":"ChIJpUsN0MvZKWsRoPiMIXVWBAU","state":"VIC","distance":null,"travelTime":null,"postcode":[3781]},{"lat":-37.5084874,"lng":145.3140634,"name":"Kinglake Central","types":"['locality', 'political']","placeID":"ChIJCzY4kQLb12oRMH6gMKR5BQQ","state":"VIC","distance":null,"travelTime":null,"postcode":[3757]},{"lat":-37.4973277,"lng":145.1759441,"name":"Humevale","types":"['locality', 'political']","placeID":"ChIJ9d4VZgC412oRkH2gMKR5BQQ","state":"VIC","distance":null,"travelTime":null,"postcode":[3757]},{"lat":-37.8301738,"lng":144.9933619,"name":"Cremorne","types":"['locality', 'political']","placeID":"ChIJacMaypFC1moRMP2MIXVWBAU","state":"VIC","distance":null,"travelTime":null,"postcode":[3121]},{"lat":-37.9825379,"lng":145.0418067,"name":"Beaumaris","types":"['locality', 'political']","placeID":"ChIJF4mnnmdu1moRkN-MIXVWBAU","state":"VIC","distance":null,"travelTime":null,"postcode":[3193]},{"lat":-37.8238936,"lng":144.9982667,"name":"Richmond","types":"['locality', 'political']","placeID":"ChIJRbmNAVlC1moREOiMIXVWBAU","state":"VIC","distance":null,"travelTime":null,"postcode":[3121]},{"lat":-37.9290786,"lng":145.9612856,"name":"Neerim Junction","types":"['locality', 'political']","placeID":"ChIJq3y5_YmtKWsRcGWgMKR5BQQ","state":"VIC","distance":null,"travelTime":null,"postcode":[3821,3832]},{"lat":-38.074153,"lng":145.2714705,"name":"Cranbourne North","types":"['locality', 'political']","placeID":"ChIJ3xnBl_8Q1moREPyMIXVWBAU","state":"VIC","distance":null,"travelTime":null,"postcode":[3977]},{"lat":-38.414395,"lng":145.4321854,"name":"Corinella","types":"['locality', 'political']","placeID":"ChIJBaPyTUb41WoRsG2gMKR5BQQ","state":"VIC","distance":null,"travelTime":null,"postcode":[3984]},{"lat":-38.2273912,"lng":145.6400031,"name":"Yannathan","types":"['locality', 'political']","placeID":"ChIJTyOZm8f6KWsRcHGgMKR5BQQ","state":"VIC","distance":null,"travelTime":null,"postcode":[3981]},{"lat":-38.2460919,"lng":145.5371667,"name":"Caldermeade","types":"['locality', 'political']","placeID":"ChIJkcfkiin8KWsRYG2gMKR5BQQ","state":"VIC","distance":null,"travelTime":null,"postcode":[3984]},{"lat":-37.8226005,"lng":145.0353696,"name":"Hawthorn","types":"['locality', 'political']","placeID":"ChIJwaVwBTlC1moR8NiMIXVWBAU","state":"VIC","distance":null,"travelTime":null,"postcode":[3122]},{"lat":-37.2075069,"lng":144.0974533,"name":"Yandoit","types":"['locality', 'political']","placeID":"ChIJU8VRjt8q12oRsIagMKR5BQQ","state":"VIC","distance":null,"travelTime":null,"postcode":[3461]},{"lat":-37.9633935,"lng":145.3417995,"name":"Narre Warren East","types":"['locality', 'political']","placeID":"ChIJxVVm44Ei1moR0OqMIXVWBAU","state":"VIC","distance":null,"travelTime":null,"postcode":[3804]},{"lat":-38.4251369,"lng":145.5325909,"name":"Adams Estate","types":"['locality', 'political']","placeID":"ChIJd84aJQMHKmsRoGygMKR5BQQ","state":"VIC","distance":null,"travelTime":null,"postcode":[3984]},{"lat":-38.1033891,"lng":145.3071234,"name":"Cranbourne East","types":"['locality', 'political']","placeID":"ChIJS5H6OPAP1moRZm7RtdoqWLM","state":"VIC","distance":null,"travelTime":null,"postcode":[3977]},{"lat":-37.2701716,"lng":145.1360024,"name":"Reedy Creek","types":"['locality', 'political']","placeID":"ChIJ-y52PTyV12oRwIKgMKR5BQQ","state":"VIC","distance":null,"travelTime":null,"postcode":[3658]},{"lat":-38.0626783,"lng":143.7519848,"name":"Barunah Plains","types":"['locality', 'political']","placeID":"ChIJ9wSId9CU02oRYLegMKR5BQQ","state":"VIC","distance":null,"travelTime":null,"postcode":[3329]},{"lat":-37.25181,"lng":144.8126783,"name":"Goldie","types":"['locality', 'political']","placeID":"ChIJASyg-gCj12oRYHygMKR5BQQ","state":"VIC","distance":null,"travelTime":null,"postcode":[3435]},{"lat":-37.2186034,"lng":144.0500176,"name":"Yandoit Hills","types":"['locality', 'political']","placeID":"ChIJ_e_NnrUq12oRwIagMKR5BQQ","state":"VIC","distance":null,"travelTime":null,"postcode":[3461]},{"lat":-37.1959033,"lng":144.9065231,"name":"High Camp","types":"['locality', 'political']","placeID":"ChIJGWNYoOui12oRYH2gMKR5BQQ","state":"VIC","distance":null,"travelTime":null,"postcode":[3764]},{"lat":-38.3316229,"lng":144.2628182,"name":"Bellbrae","types":"['locality', 'political']","placeID":"ChIJbXdEKOt61GoRHHsyW3dvYJA","state":"VIC","distance":null,"travelTime":null,"postcode":[3228]},{"lat":-38.3614442,"lng":144.2609245,"name":"Bells Beach","types":"['locality', 'political']","placeID":"ChIJC0AjYtNk1GoRKwdQp4loBwQ","state":"VIC","distance":null,"travelTime":null,"postcode":[3228]},{"lat":-36.8308054,"lng":144.240567,"name":"Big Hill","types":"['locality', 'political']","placeID":"ChIJ7_RxpCBQ12oRUNmgMKR5BQU","state":"VIC","distance":null,"travelTime":null,"postcode":[3231,3555]},{"lat":-37.2355474,"lng":144.1131347,"name":"Franklinford","types":"['locality', 'political']","placeID":"ChIJw8-W-k_V1moRcHugMKR5BQQ","state":"VIC","distance":null,"travelTime":null,"postcode":[3461]},{"lat":-37.2775554,"lng":145.5477207,"name":"Limestone","types":"['locality', 'political']","placeID":"ChIJSc4neE8DKGsRIH-gMKR5BQQ","state":"VIC","distance":null,"travelTime":null,"postcode":[3717]},{"lat":-37.921192,"lng":145.4070685,"name":"Menzies Creek","types":"['locality', 'political']","placeID":"ChIJgRIjo8Ij1moRsOqMIXVWBAU","state":"VIC","distance":null,"travelTime":null,"postcode":[3159]},{"lat":-37.7861882,"lng":144.2146628,"name":"Beremboke","types":"['locality', 'political']","placeID":"ChIJszt6OFep1moREHKgMKR5BQQ","state":"VIC","distance":null,"travelTime":null,"postcode":[3342]},{"lat":-37.5011658,"lng":144.2067044,"name":"Blakeville","types":"['locality', 'political']","placeID":"ChIJ86Tu6SDP1moRMHKgMKR5BQQ","state":"VIC","distance":null,"travelTime":null,"postcode":[3342]},{"lat":-37.399641,"lng":144.5884001,"name":"Mount Macedon","types":"['locality', 'political']","placeID":"ChIJUyBfojgd12oR8ICgMKR5BQQ","state":"VIC","distance":null,"travelTime":null,"postcode":[3441]},{"lat":-37.1315829,"lng":145.0235127,"name":"Sugarloaf Creek","types":"['locality', 'political']","placeID":"ChIJffT3TOyR12oRMISgMKR5BQQ","state":"VIC","distance":null,"travelTime":null,"postcode":[3658]},{"lat":-37.799283,"lng":144.9873447,"name":"Collingwood","types":"['locality', 'political']","placeID":"ChIJrUX0neFC1moRoOeMIXVWBAU","state":"VIC","distance":null,"travelTime":null,"postcode":[3066]},{"lat":-37.196249,"lng":145.4295687,"name":"Killingworth","types":"['locality', 'political']","placeID":"ChIJkZR3KkP812oR8H2gMKR5BQQ","state":"VIC","distance":null,"travelTime":null,"postcode":[3717]},{"lat":-37.8947609,"lng":145.0848814,"name":"Hughesdale","types":"['locality', 'political']","placeID":"ChIJ1br_QEVq1moREPmMIXVWBAU","state":"VIC","distance":null,"travelTime":null,"postcode":[3166]},{"lat":-37.3093059,"lng":144.1325563,"name":"Hepburn","types":"['locality', 'political']","placeID":"ChIJk2gvS3zU1moRYNKgMKR5BQU","state":"VIC","distance":null,"travelTime":null,"postcode":[3461]},{"lat":-37.8049005,"lng":143.9618589,"name":"Cargerie","types":"['locality', 'political']","placeID":"ChIJw-7vRuH902oRkHKgMKR5BQQ","state":"VIC","distance":null,"travelTime":null,"postcode":[3334]},{"lat":-37.6882541,"lng":144.0939242,"name":"Bungal","types":"['locality', 'political']","placeID":"ChIJtbSat_ms1moRgHKgMKR5BQQ","state":"VIC","distance":null,"travelTime":null,"postcode":[3334]},{"lat":-37.7787036,"lng":144.9426083,"name":"Parkville","types":"['locality', 'political']","placeID":"ChIJTRICMtdc1moREOeMIXVWBAU","state":"VIC","distance":null,"travelTime":null,"postcode":[3052]},{"lat":-37.6994841,"lng":144.8803113,"name":"Tullamarine","types":"['locality', 'political']","placeID":"ChIJ0TmhodBb1moRINGMIXVWBAU","state":"VIC","distance":null,"travelTime":null,"postcode":[3043]},{"lat":-38.1777528,"lng":145.571072,"name":"Bayles","types":"['locality', 'political']","placeID":"ChIJJaWkfvP8KWsRAG2gMKR5BQQ","state":"VIC","distance":null,"travelTime":null,"postcode":[3981]},{"lat":-37.5141982,"lng":145.1147772,"name":"Whittlesea","types":"['locality', 'political']","placeID":"ChIJQUvXOUe212oREM6MIXVWBAU","state":"VIC","distance":null,"travelTime":null,"postcode":[3757]},{"lat":-37.6787568,"lng":144.999386,"name":"Thomastown","types":"['locality', 'political']","placeID":"ChIJCVtZknNP1moRANGMIXVWBAU","state":"VIC","distance":null,"travelTime":null,"postcode":[3074]},{"lat":-37.8554296,"lng":145.7131181,"name":"Gilderoy","types":"['locality', 'political']","placeID":"ChIJ0W4hTIfOKWsRMG6gMKR5BQQ","state":"VIC","distance":null,"travelTime":null,"postcode":[3797]},{"lat":-37.8893948,"lng":145.0419257,"name":"Glen Huntly","types":"['locality', 'political']","placeID":"ChIJO4IUqINp1moRwNyMIXVWBAU","state":"VIC","distance":null,"travelTime":null,"postcode":[3163]},{"lat":-37.7805624,"lng":145.0322776,"name":"Alphington","types":"['locality', 'political']","placeID":"ChIJbdyyKBNE1moRwPaMIXVWBAU","state":"VIC","distance":null,"travelTime":null,"postcode":[3078]},{"lat":-37.9211594,"lng":145.0590176,"name":"Bentleigh East","types":"['locality', 'political']","placeID":"ChIJUc3K9kxp1moRsN2MIXVWBAU","state":"VIC","distance":null,"travelTime":null,"postcode":[3165]},{"lat":-37.7692917,"lng":144.9990291,"name":"Northcote","types":"['locality', 'political']","placeID":"ChIJc-QdInxD1moRUNaMIXVWBAU","state":"VIC","distance":null,"travelTime":null,"postcode":[3070]},{"lat":-37.9155821,"lng":144.2572728,"name":"Anakie","types":"['locality', 'political']","placeID":"ChIJFfOaTesc1GoRgHGgMKR5BQQ","state":"VIC","distance":null,"travelTime":null,"postcode":[3213,3221]},{"lat":-38.2238031,"lng":145.1757973,"name":"Somerville","types":"['locality', 'political']","placeID":"ChIJNTg5h87h1WoREOSMIXVWBAU","state":"VIC","distance":null,"travelTime":null,"postcode":[3912]},{"lat":-38.5981475,"lng":145.5747585,"name":"South Dudley","types":"['locality', 'political']","placeID":"ChIJhcGgg4ELKmsR8NygMKR5BQU","state":"VIC","distance":null,"travelTime":null,"postcode":[3995]},{"lat":-37.8978307,"lng":145.070895,"name":"Murrumbeena","types":"['locality', 'political']","placeID":"ChIJU8N4lzdq1moRoNyMIXVWBAU","state":"VIC","distance":null,"travelTime":null,"postcode":[3163]},{"lat":-38.4113375,"lng":145.7615958,"name":"Bena","types":"['locality', 'political']","placeID":"ChIJAW863ssdKmsRIG2gMKR5BQQ","state":"VIC","distance":null,"travelTime":null,"postcode":[3946]},{"lat":-37.6612312,"lng":144.9370304,"name":"Coolaroo","types":"['locality', 'political']","placeID":"ChIJ3-a_CIlQ1moRQNCMIXVWBAU","state":"VIC","distance":null,"travelTime":null,"postcode":[3048]},{"lat":-38.1724625,"lng":144.3184765,"name":"Highton","types":"['locality', 'political']","placeID":"ChIJfUNCzQQT1GoRAOqMIXVWBAU","state":"VIC","distance":null,"travelTime":null,"postcode":[3216]},{"lat":-37.4940093,"lng":144.589637,"name":"Gisborne","types":"['locality', 'political']","placeID":"ChIJMek7A-nk1moR0M2MIXVWBAU","state":"VIC","distance":null,"travelTime":null,"postcode":[3437]},{"lat":-37.845644,"lng":144.0768421,"name":"Meredith","types":"['locality', 'political']","placeID":"ChIJLytDU8L402oRUHSgMKR5BQQ","state":"VIC","distance":null,"travelTime":null,"postcode":[3333]},{"lat":-37.9490959,"lng":145.0460123,"name":"Highett","types":"['locality', 'political']","placeID":"ChIJjVCZwkhp1moR4N6MIXVWBAU","state":"VIC","distance":null,"travelTime":null,"postcode":[3190]},{"lat":-38.2138988,"lng":144.096598,"name":"Buckley","types":"['locality', 'political']","placeID":"ChIJj_xh8SJ21GoRUHKgMKR5BQQ","state":"VIC","distance":null,"travelTime":null,"postcode":[3240]},{"lat":-37.9820135,"lng":145.3138892,"name":"Narre Warren North","types":"['locality', 'political']","placeID":"ChIJTZfMzCYY1moRYN-MIXVWBAU","state":"VIC","distance":null,"travelTime":null,"postcode":[3804]},{"lat":-37.7763468,"lng":145.5764799,"name":"Launching Place","types":"['locality', 'political']","placeID":"ChIJ7x0exUjUKWsRwNaMIXVWBAU","state":"VIC","distance":null,"travelTime":null,"postcode":[3139]},{"lat":-37.5415711,"lng":144.6203334,"name":"Gisborne South","types":"['locality', 'political']","placeID":"ChIJpTXEbcD61moR0P6MIXVWBAU","state":"VIC","distance":null,"travelTime":null,"postcode":[3437]},{"lat":-38.0708536,"lng":145.9261218,"name":"Rokeby","types":"['locality', 'political']","placeID":"ChIJx2otkeG7KWsR0GagMKR5BQQ","state":"VIC","distance":null,"travelTime":null,"postcode":[3821]},{"lat":-38.209802,"lng":145.5340051,"name":"Monomeith","types":"['locality', 'political']","placeID":"ChIJ7atz6Zf9KWsRkG-gMKR5BQQ","state":"VIC","distance":null,"travelTime":null,"postcode":[3984]},{"lat":-38.0478022,"lng":145.3699169,"name":"Beaconsfield","types":"['locality', 'political']","placeID":"ChIJhVevbEEZ1moRgOCMIXVWBAU","state":"VIC","distance":null,"travelTime":null,"postcode":[3807]},{"lat":-38.4676985,"lng":144.0667059,"name":"Moggs Creek","types":"['locality', 'political']","placeID":"ChIJhQdlJlx-02oRMMmgMKR5BQQ","state":"VIC","distance":null,"travelTime":null,"postcode":[3231]},{"lat":-37.2705172,"lng":144.2324222,"name":"Glenlyon","types":"['locality', 'political']","placeID":"ChIJRXOIp08o12oRIHygMKR5BQQ","state":"VIC","distance":null,"travelTime":null,"postcode":[3461]},{"lat":-37.9185675,"lng":145.9324981,"name":"Nayook","types":"['locality', 'political']","placeID":"ChIJvTy57wq0KWsRQGWgMKR5BQQ","state":"VIC","distance":null,"travelTime":null,"postcode":[3832]},{"lat":-37.153961,"lng":144.5543073,"name":"Sidonia","types":"['locality', 'political']","placeID":"ChIJtwsKa98T12oRYIOgMKR5BQQ","state":"VIC","distance":null,"travelTime":null,"postcode":[3444]},{"lat":-37.8526163,"lng":145.1519822,"name":"Burwood East","types":"['locality', 'political']","placeID":"ChIJtxBz3nk_1moRoNqMIXVWBAU","state":"VIC","distance":null,"travelTime":null,"postcode":[3151]},{"lat":-37.3024171,"lng":144.3304249,"name":"Spring Hill","types":"['locality', 'political']","placeID":"ChIJj50VJjUn12oRoIOgMKR5BQQ","state":"VIC","distance":null,"travelTime":null,"postcode":[3444]},{"lat":-38.0003679,"lng":145.3415665,"name":"Harkaway","types":"['locality', 'political']","placeID":"ChIJGVHR9VcY1moRsN-MIXVWBAU","state":"VIC","distance":null,"travelTime":null,"postcode":[3806]},{"lat":-38.4673526,"lng":144.0879304,"name":"Fairhaven","types":"['locality', 'political']","placeID":"ChIJSbeeryt802oRgMSgMKR5BQQ","state":"VIC","distance":null,"travelTime":null,"postcode":[3231]},{"lat":-38.0510589,"lng":145.2559478,"name":"Lynbrook","types":"['locality', 'political']","placeID":"ChIJiUfqhJoR1moRAP-MIXVWBAU","state":"VIC","distance":null,"travelTime":null,"postcode":[3975]},{"lat":-38.0705008,"lng":145.2467167,"name":"Lyndhurst","types":"['locality', 'political']","placeID":"ChIJj9qhT4kR1moR0OCMIXVWBAU","state":"VIC","distance":null,"travelTime":null,"postcode":[3975]},{"lat":-38.1744496,"lng":144.3029383,"name":"Wandana Heights","types":"['locality', 'political']","placeID":"ChIJP7tk5eAS1GoRMOOMIXVWBAU","state":"VIC","distance":null,"travelTime":null,"postcode":[3216]},{"lat":-38.4208351,"lng":145.0752536,"name":"Point Leo","types":"['locality', 'political']","placeID":"ChIJLYZmAD3B1WoRoOaMIXVWBAU","state":"VIC","distance":null,"travelTime":null,"postcode":[3916]},{"lat":-37.8926071,"lng":146.3837543,"name":"Baw Baw","types":"['locality', 'political']","placeID":"ChIJy-aO9xj6KGsREFqgMKR5BQQ","state":"VIC","distance":null,"travelTime":null,"postcode":[3833]},{"lat":-37.444126,"lng":144.1277136,"name":"Korweinguboora","types":"['locality', 'political']","placeID":"ChIJqZEL2k_M1moR0HOgMKR5BQQ","state":"VIC","distance":null,"travelTime":null,"postcode":[3461]},{"lat":-37.3182611,"lng":144.1386129,"name":"Hepburn Springs","types":"['locality', 'political']","placeID":"ChIJa6EQkG3U1moRcNKgMKR5BQU","state":"VIC","distance":null,"travelTime":null,"postcode":[3461]},{"lat":-37.8554394,"lng":145.3154872,"name":"The Basin","types":"['locality', 'political']","placeID":"ChIJq1YASsok1moRgNqMIXVWBAU","state":"VIC","distance":null,"travelTime":null,"postcode":[3154]},{"lat":-37.7772227,"lng":145.4608882,"name":"Seville","types":"['locality', 'political']","placeID":"ChIJQRdpPOgp1moRgNWMIXVWBAU","state":"VIC","distance":null,"travelTime":null,"postcode":[3139]},{"lat":-37.1751006,"lng":144.088794,"name":"Clydesdale","types":"['locality', 'political']","placeID":"ChIJy-RdzkEr12oRcHmgMKR5BQQ","state":"VIC","distance":null,"travelTime":null,"postcode":[3461]},{"lat":-38.0063441,"lng":145.273282,"name":"Hallam","types":"['locality', 'political']","placeID":"ChIJ1W41wiIX1moR4N-MIXVWBAU","state":"VIC","distance":null,"travelTime":null,"postcode":[3803]},{"lat":-37.8626744,"lng":145.2856552,"name":"Boronia","types":"['locality', 'political']","placeID":"ChIJPazk00E71moR8NmMIXVWBAU","state":"VIC","distance":null,"travelTime":null,"postcode":[3155]},{"lat":-38.026173,"lng":145.3067451,"name":"Narre Warren","types":"['locality', 'political']","placeID":"ChIJgcLmc6kQ1moRIOCMIXVWBAU","state":"VIC","distance":null,"travelTime":null,"postcode":[3805]},{"lat":-38.0535338,"lng":145.3013545,"name":"Narre Warren South","types":"['locality', 'political']","placeID":"ChIJSTEBdpsQ1moR8OCMIXVWBAU","state":"VIC","distance":null,"travelTime":null,"postcode":[3805]},{"lat":-37.9810712,"lng":145.4745068,"name":"Dewhurst","types":"['locality', 'political']","placeID":"ChIJPRi0_kMg1moRwPiMIXVWBAU","state":"VIC","distance":null,"travelTime":null,"postcode":[3808]},{"lat":-37.6506571,"lng":146.0409116,"name":"Cambarville","types":"['locality', 'political']","placeID":"ChIJd9eEIjtCKGsRcG2gMKR5BQQ","state":"VIC","distance":null,"travelTime":null,"postcode":[3779]},{"lat":-37.9749174,"lng":145.2581884,"name":"Endeavour Hills","types":"['locality', 'political']","placeID":"ChIJ2TEmT_YW1moR0N6MIXVWBAU","state":"VIC","distance":null,"travelTime":null,"postcode":[3802]},{"lat":-38.017,"lng":145.386,"name":"Guys Hill","types":"['locality', 'political']","placeID":"ChIJm7zuKtYY1moRwPyMIXVWBAU","state":"VIC","distance":null,"travelTime":null,"postcode":[3807]},{"lat":-38.2429347,"lng":144.1720585,"name":"Moriac","types":"['locality', 'political']","placeID":"ChIJF4JLu7Bz1GoRgHSgMKR5BQQ","state":"VIC","distance":null,"travelTime":null,"postcode":[3240]},{"lat":-38.0048693,"lng":145.4094742,"name":"Beaconsfield Upper","types":"['locality', 'political']","placeID":"ChIJq284NsAY1moR4OqMIXVWBAU","state":"VIC","distance":null,"travelTime":null,"postcode":[3808]},{"lat":-38.2643347,"lng":144.1223499,"name":"Modewarre","types":"['locality', 'political']","placeID":"ChIJl8ra9h951GoRcHSgMKR5BQQ","state":"VIC","distance":null,"travelTime":null,"postcode":[3240]},{"lat":-37.2922054,"lng":145.8180786,"name":"Rubicon","types":"['locality', 'political']","placeID":"ChIJ_wta7zQNKGsREIOgMKR5BQQ","state":"VIC","distance":null,"travelTime":null,"postcode":[3712]},{"lat":-37.9148756,"lng":145.3738355,"name":"Selby","types":"['locality', 'political']","placeID":"ChIJv67tAL8j1moRsNyMIXVWBAU","state":"VIC","distance":null,"travelTime":null,"postcode":[3159]},{"lat":-37.9937732,"lng":145.0767488,"name":"Parkdale","types":"['locality', 'political']","placeID":"ChIJLUlSSKht1moRQPqMIXVWBAU","state":"VIC","distance":null,"travelTime":null,"postcode":[3195]},{"lat":-38.1371345,"lng":145.6896683,"name":"Iona","types":"['locality', 'political']","placeID":"ChIJKyGtdk_vKWsRoG6gMKR5BQQ","state":"VIC","distance":null,"travelTime":null,"postcode":[3815]},{"lat":-37.8981371,"lng":146.0251017,"name":"Noojee","types":"['locality', 'political']","placeID":"ChIJyXuSFf5MKGsR4GWgMKR5BQQ","state":"VIC","distance":null,"travelTime":null,"postcode":[3833]},{"lat":-37.2544592,"lng":145.7966134,"name":"Thornton","types":"['locality', 'political']","placeID":"ChIJ-TnF920LKGsR8ISgMKR5BQQ","state":"VIC","distance":null,"travelTime":null,"postcode":[3712]},{"lat":-37.9185923,"lng":145.2779171,"name":"Lysterfield","types":"['locality', 'political']","placeID":"ChIJj3kWA0U91moRoN2MIXVWBAU","state":"VIC","distance":null,"travelTime":null,"postcode":[3156]},{"lat":-37.6850191,"lng":145.136789,"name":"St Helena","types":"['locality', 'political']","placeID":"ChIJn1JVWNpJ1moRm50eryPiJP0","state":"VIC","distance":null,"travelTime":null,"postcode":[3088]},{"lat":-37.9022222,"lng":145.3298845,"name":"Upwey","types":"['locality', 'political']","placeID":"ChIJ_Ws6ODoj1moR8NyMIXVWBAU","state":"VIC","distance":null,"travelTime":null,"postcode":[3158]},{"lat":-38.2122005,"lng":145.3783748,"name":"Tooradin","types":"['locality', 'political']","placeID":"ChIJWRtL7G8F1moRcOqMIXVWBAU","state":"VIC","distance":null,"travelTime":null,"postcode":[3980]},{"lat":-37.8826855,"lng":145.2776105,"name":"Ferntree Gully","types":"['locality', 'political']","placeID":"ChIJzaR5Ju081moRsNuMIXVWBAU","state":"VIC","distance":null,"travelTime":null,"postcode":[3156]},{"lat":-37.7143364,"lng":145.0386962,"name":"Kingsbury","types":"['locality', 'political']","placeID":"ChIJtQvnfO5F1moRANOMIXVWBAU","state":"VIC","distance":null,"travelTime":null,"postcode":[3083]},{"lat":-37.7062908,"lng":144.8948907,"name":"Gowanbrae","types":"['locality', 'political']","placeID":"ChIJf3wTDbdb1moRINKMIXVWBAU","state":"VIC","distance":null,"travelTime":null,"postcode":[3043]},{"lat":-37.6874566,"lng":144.4184012,"name":"Maddingley","types":"['locality', 'political']","placeID":"ChIJs-OFCTy-1moRcPmMIXVWBAU","state":"VIC","distance":null,"travelTime":null,"postcode":[3340]},{"lat":-37.8453686,"lng":145.6855685,"name":"Three Bridges","types":"['locality', 'political']","placeID":"ChIJKYfGQ7DNKWsRoHCgMKR5BQQ","state":"VIC","distance":null,"travelTime":null,"postcode":[3797]},{"lat":-37.9598433,"lng":145.2825138,"name":"Lysterfield South","types":"['locality', 'political']","placeID":"ChIJP4TKfkoW1moREPqMIXVWBAU","state":"VIC","distance":null,"travelTime":null,"postcode":[3156]},{"lat":-37.8074324,"lng":145.0288674,"name":"Kew","types":"['locality', 'political']","placeID":"ChIJw5wfF8FD1moRUOeMIXVWBAU","state":"VIC","distance":null,"travelTime":null,"postcode":[3101]},{"lat":-38.4075494,"lng":145.530334,"name":"Grantville","types":"['locality', 'political']","placeID":"ChIJf7iz-eQGKmsRYG6gMKR5BQQ","state":"VIC","distance":null,"travelTime":null,"postcode":[3984]},{"lat":-38.5048641,"lng":145.2786156,"name":"Sunderland Bay","types":"['locality', 'political']","placeID":"ChIJg1lV2ALt1WoRgNSgMKR5BQU","state":"VIC","distance":null,"travelTime":null,"postcode":[3922]},{"lat":-37.7116831,"lng":144.3096791,"name":"Glenmore","types":"['locality', 'political']","placeID":"ChIJCVQMt6O71moRYHOgMKR5BQQ","state":"VIC","distance":null,"travelTime":null,"postcode":[3340]},{"lat":-37.7730009,"lng":145.0602831,"name":"Ivanhoe East","types":"['locality', 'political']","placeID":"ChIJk7DMIYxD1moRsNaMIXVWBAU","state":"VIC","distance":null,"travelTime":null,"postcode":[3079]},{"lat":-37.7815192,"lng":144.9670038,"name":"Princes Hill","types":"['locality', 'political']","placeID":"ChIJXcAx5jND1moRIP2MIXVWBAU","state":"VIC","distance":null,"travelTime":null,"postcode":[3054]},{"lat":-37.5286609,"lng":145.5191965,"name":"Toolangi","types":"['locality', 'political']","placeID":"ChIJ87hvbEcoKGsREIWgMKR5BQQ","state":"VIC","distance":null,"travelTime":null,"postcode":[3777]},{"lat":-38.0167551,"lng":145.6995425,"name":"Tonimbuk","types":"['locality', 'political']","placeID":"ChIJcyB0yQzDKWsRsHCgMKR5BQQ","state":"VIC","distance":null,"travelTime":null,"postcode":[3815]},{"lat":-37.823632,"lng":145.6535761,"name":"Gladysdale","types":"['locality', 'political']","placeID":"ChIJ4Spq9ovRKWsRgNiMIXVWBAU","state":"VIC","distance":null,"travelTime":null,"postcode":[3797]},{"lat":-37.7318575,"lng":145.4440714,"name":"Gruyere","types":"['locality', 'political']","placeID":"ChIJB4-tvnsr1moRkP6MIXVWBAU","state":"VIC","distance":null,"travelTime":null,"postcode":[3770]},{"lat":-37.8326655,"lng":145.0681032,"name":"Camberwell","types":"['locality', 'political']","placeID":"ChIJT8ASrWM_1moRYNmMIXVWBAU","state":"VIC","distance":null,"travelTime":null,"postcode":[3124,8627]},{"lat":-37.4199894,"lng":144.1162322,"name":"Leonards Hill","types":"['locality', 'political']","placeID":"ChIJ11vQs5rN1moRAH-gMKR5BQQ","state":"VIC","distance":null,"travelTime":null,"postcode":[3461]},{"lat":-37.7815665,"lng":145.6141514,"name":"Yarra Junction","types":"['locality', 'political']","placeID":"ChIJrUGy76zTKWsRgNaMIXVWBAU","state":"VIC","distance":null,"travelTime":null,"postcode":[3797]},{"lat":-37.7645012,"lng":145.7510159,"name":"Big Pats Creek","types":"['locality', 'political']","placeID":"ChIJIeKDqH4zKGsRgPyMIXVWBAU","state":"VIC","distance":null,"travelTime":null,"postcode":[3799]},{"lat":-37.8658155,"lng":145.758847,"name":"Powelltown","types":"['locality', 'political']","placeID":"ChIJ6Vk1T4LMKWsRIHCgMKR5BQQ","state":"VIC","distance":null,"travelTime":null,"postcode":[3797]},{"lat":-38.4346491,"lng":145.4410083,"name":"Coronet Bay","types":"['locality', 'political']","placeID":"ChIJ0YeKMTD41WoRwG2gMKR5BQQ","state":"VIC","distance":null,"travelTime":null,"postcode":[3984]},{"lat":-37.6340071,"lng":145.6499797,"name":"Fernshaw","types":"['locality', 'political']","placeID":"ChIJWybXMt4uKGsRQHugMKR5BQQ","state":"VIC","distance":null,"travelTime":null,"postcode":[3778]},{"lat":-37.8582498,"lng":144.9698325,"name":"St Kilda West","types":"['locality', 'political']","placeID":"ChIJNRgidG5o1moRQP6MIXVWBAU","state":"VIC","distance":null,"travelTime":null,"postcode":[3182]},{"lat":-37.5432539,"lng":145.6693369,"name":"Narbethong","types":"['locality', 'political']","placeID":"ChIJBTsqkMAlKGsRcIGgMKR5BQQ","state":"VIC","distance":null,"travelTime":null,"postcode":[3778]},{"lat":-37.7043698,"lng":145.1006438,"name":"Greensborough","types":"['locality', 'political']","placeID":"ChIJ99xa6kJI1moRUNGMIXVWBAU","state":"VIC","distance":null,"travelTime":null,"postcode":[3088]},{"lat":-37.9995418,"lng":145.0940302,"name":"Mordialloc","types":"['locality', 'political']","placeID":"ChIJUTW5madt1moR0N-MIXVWBAU","state":"VIC","distance":null,"travelTime":null,"postcode":[3195]},{"lat":-38.0309443,"lng":145.3437469,"name":"Berwick","types":"['locality', 'political']","placeID":"ChIJmbzkJ4AX1moRMOCMIXVWBAU","state":"VIC","distance":null,"travelTime":null,"postcode":[3806]},{"lat":-38.3987161,"lng":145.6263866,"name":"Woodleigh","types":"['locality', 'political']","placeID":"ChIJRxL-X7ADKmsRUHGgMKR5BQQ","state":"VIC","distance":null,"travelTime":null,"postcode":[3945]},{"lat":-37.5104329,"lng":145.7442759,"name":"Marysville","types":"['locality', 'political']","placeID":"ChIJ88tS2IdqKGsRwH-gMKR5BQQ","state":"VIC","distance":null,"travelTime":null,"postcode":[3779]},{"lat":-37.8027205,"lng":145.3146756,"name":"Kilsyth","types":"['locality', 'political']","placeID":"ChIJQYBcaUol1moR0NeMIXVWBAU","state":"VIC","distance":null,"travelTime":null,"postcode":[3137]},{"lat":-38.2667334,"lng":145.1272218,"name":"Moorooduc","types":"['locality', 'political']","placeID":"ChIJd13DXHPe1WoR4OOMIXVWBAU","state":"VIC","distance":null,"travelTime":null,"postcode":[3933]},{"lat":-38.3688409,"lng":145.7070431,"name":"Loch","types":"['locality', 'political']","placeID":"ChIJWQwul9scKmsRYG-gMKR5BQQ","state":"VIC","distance":null,"travelTime":null,"postcode":[3945]},{"lat":-38.0159002,"lng":145.1298535,"name":"Waterways","types":"['locality', 'political']","placeID":"ChIJQWDn6DZt1moREP-MIXVWBAU","state":"VIC","distance":null,"travelTime":null,"postcode":[3195]},{"lat":-37.2490932,"lng":144.4532075,"name":"Kyneton","types":"['locality', 'political']","placeID":"ChIJtUuIINQY12oRgH6gMKR5BQQ","state":"VIC","distance":null,"travelTime":null,"postcode":[3444]},{"lat":-38.2696215,"lng":145.018367,"name":"Mount Martha","types":"['locality', 'political']","placeID":"ChIJ2Xa7pG3b1WoRwOSMIXVWBAU","state":"VIC","distance":null,"travelTime":null,"postcode":[3934]},{"lat":-37.8163579,"lng":145.1936683,"name":"Mitcham","types":"['locality', 'political']","placeID":"ChIJeWfClxU51moRYNiMIXVWBAU","state":"VIC","distance":null,"travelTime":null,"postcode":[3132]},{"lat":-38.3697067,"lng":145.01063,"name":"Red Hill","types":"['locality', 'political']","placeID":"ChIJxarZ1DrE1WoRoOWMIXVWBAU","state":"VIC","distance":null,"travelTime":null,"postcode":[3937]},{"lat":-38.3933443,"lng":145.0333308,"name":"Red Hill South","types":"['locality', 'political']","placeID":"ChIJz61RX6TG1WoRUOaMIXVWBAU","state":"VIC","distance":null,"travelTime":null,"postcode":[3937]},{"lat":-37.3524234,"lng":144.8030045,"name":"Springfield","types":"['locality', 'political']","placeID":"ChIJD4qTgmik12oRsIOgMKR5BQQ","state":"VIC","distance":null,"travelTime":null,"postcode":[3434,3544]},{"lat":-38.4203097,"lng":145.0546889,"name":"Shoreham","types":"['locality', 'political']","placeID":"ChIJJwvrfC7B1WoRsOaMIXVWBAU","state":"VIC","distance":null,"travelTime":null,"postcode":[3916]},{"lat":-38.456183,"lng":145.2389112,"name":"Cowes","types":"['locality', 'political']","placeID":"ChIJ2-vd9nns1WoRENSgMKR5BQU","state":"VIC","distance":null,"travelTime":null,"postcode":[3922]},{"lat":-37.1808361,"lng":144.6507092,"name":"Pastoria East","types":"['locality', 'political']","placeID":"ChIJu_lrYboN12oRMIKgMKR5BQQ","state":"VIC","distance":null,"travelTime":null,"postcode":[3444]},{"lat":-37.1912848,"lng":144.6875071,"name":"Benloch","types":"['locality', 'political']","placeID":"ChIJH2G34Q8M12oRMHegMKR5BQQ","state":"VIC","distance":null,"travelTime":null,"postcode":[3435]},{"lat":-37.4910839,"lng":144.7932491,"name":"Clarkefield","types":"['locality', 'political']","placeID":"ChIJG04oijdV1moR4ACNIXVWBAU","state":"VIC","distance":null,"travelTime":null,"postcode":[3430]},{"lat":-38.3209972,"lng":144.987458,"name":"Safety Beach","types":"['locality', 'political']","placeID":"ChIJievQUBzF1WoRMOWMIXVWBAU","state":"VIC","distance":null,"travelTime":null,"postcode":[3936]},{"lat":-38.4093074,"lng":144.8547209,"name":"Fingal","types":"['locality', 'political']","placeID":"ChIJFexFtci11WoRgPuMIXVWBAU","state":"VIC","distance":null,"travelTime":null,"postcode":[3939]},{"lat":-37.7248363,"lng":145.0672046,"name":"Macleod","types":"['locality', 'political']","placeID":"ChIJOwYM0FVP1moRoNKMIXVWBAU","state":"VIC","distance":null,"travelTime":null,"postcode":[3085]},{"lat":-37.8359978,"lng":145.1954531,"name":"Vermont","types":"['locality', 'political']","placeID":"ChIJa0Hcacs-1moRwNmMIXVWBAU","state":"VIC","distance":null,"travelTime":null,"postcode":[3133]},{"lat":-38.3680733,"lng":144.9086168,"name":"Rosebud","types":"['locality', 'political']","placeID":"ChIJA4WeZwDJ1WoR4OWMIXVWBAU","state":"VIC","distance":null,"travelTime":null,"postcode":[3939]},{"lat":-37.6926696,"lng":144.8951801,"name":"Gladstone Park","types":"['locality', 'political']","placeID":"ChIJKRGxDjZa1moRoPyMIXVWBAU","state":"VIC","distance":null,"travelTime":null,"postcode":[3043]},{"lat":-38.0119757,"lng":145.5124279,"name":"Pakenham Upper","types":"['locality', 'political']","placeID":"ChIJWfgzZuIf1moRIPeMIXVWBAU","state":"VIC","distance":null,"travelTime":null,"postcode":[3810]},{"lat":-37.7790074,"lng":145.0181267,"name":"Fairfield","types":"['locality', 'political']","placeID":"ChIJ4_cj6JpD1moRAOeMIXVWBAU","state":"VIC","distance":null,"travelTime":null,"postcode":[3078]},{"lat":-37.7415712,"lng":145.0428381,"name":"Heidelberg West","types":"['locality', 'political']","placeID":"ChIJqSZZEddF1moRsP2MIXVWBAU","state":"VIC","distance":null,"travelTime":null,"postcode":[3081]},{"lat":-37.8064051,"lng":145.1586444,"name":"Blackburn North","types":"['locality', 'political']","placeID":"ChIJoc3ovJQ41moRANiMIXVWBAU","state":"VIC","distance":null,"travelTime":null,"postcode":[3130]},{"lat":-38.1366577,"lng":145.466606,"name":"Rythdale","types":"['locality', 'political']","placeID":"ChIJyUbjVDgd1moR68WBaMb0NRI","state":"VIC","distance":null,"travelTime":null,"postcode":[3810]},{"lat":-37.7944026,"lng":145.2812664,"name":"Croydon","types":"['locality', 'political']","placeID":"ChIJm2nXhh4u1moR0NaMIXVWBAU","state":"VIC","distance":null,"travelTime":null,"postcode":[3136]},{"lat":-37.787397,"lng":145.1248634,"name":"Doncaster","types":"['locality', 'political']","placeID":"ChIJY6WjaipH1moR4NaMIXVWBAU","state":"VIC","distance":null,"travelTime":null,"postcode":[3108]},{"lat":-37.9077849,"lng":145.1168292,"name":"Oakleigh East","types":"['locality', 'political']","placeID":"ChIJseEVDupq1moRIPmMIXVWBAU","state":"VIC","distance":null,"travelTime":null,"postcode":[3166]},{"lat":-37.8154691,"lng":144.1947662,"name":"Durdidwarrah","types":"['locality', 'political']","placeID":"ChIJFVN2vzeq1moRAHOgMKR5BQQ","state":"VIC","distance":null,"travelTime":null,"postcode":[3342]},{"lat":-37.8007555,"lng":144.9669992,"name":"Carlton","types":"['locality', 'political']","placeID":"ChIJ0S2YU9FC1moRgOeMIXVWBAU","state":"VIC","distance":null,"travelTime":null,"postcode":[3053]},{"lat":-37.4232945,"lng":145.7089995,"name":"Buxton","types":"['locality', 'political']","placeID":"ChIJV9qYsbQRKGsRIHigMKR5BQQ","state":"VIC","distance":null,"travelTime":null,"postcode":[3711]},{"lat":-37.9757588,"lng":145.1226002,"name":"Dingley Village","types":"['locality', 'political']","placeID":"ChIJsd6vubBs1moRMN-MIXVWBAU","state":"VIC","distance":null,"travelTime":null,"postcode":[3172]},{"lat":-37.5346231,"lng":144.9057665,"name":"Mickleham","types":"['locality', 'political']","placeID":"ChIJPfpWsHRW1moRkM6MIXVWBAU","state":"VIC","distance":null,"travelTime":null,"postcode":[3064,3064]},{"lat":-37.877125,"lng":145.4103108,"name":"Monbulk","types":"['locality', 'political']","placeID":"ChIJgzs1eV8m1moRwOiMIXVWBAU","state":"VIC","distance":null,"travelTime":null,"postcode":[3793]},{"lat":-37.8079276,"lng":145.2516073,"name":"Ringwood East","types":"['locality', 'political']","placeID":"ChIJy7YAWkk61moR8NeMIXVWBAU","state":"VIC","distance":null,"travelTime":null,"postcode":[3135]},{"lat":-37.8322654,"lng":145.4290936,"name":"Silvan","types":"['locality', 'political']","placeID":"ChIJs4MsYIUo1moR0OeMIXVWBAU","state":"VIC","distance":null,"travelTime":null,"postcode":[3795]},{"lat":-37.8479567,"lng":145.2289289,"name":"Wantirna","types":"['locality', 'political']","placeID":"ChIJLTl0Y6g-1moRQNqMIXVWBAU","state":"VIC","distance":null,"travelTime":null,"postcode":[3152]},{"lat":-38.2540282,"lng":145.8780573,"name":"Torwood","types":"['locality', 'political']","placeID":"ChIJQ96eUOWSKWsRgGmgMKR5BQQ","state":"VIC","distance":null,"travelTime":null,"postcode":[3821]},{"lat":-37.8856799,"lng":145.3921009,"name":"The Patch","types":"['locality', 'political']","placeID":"ChIJk1OnBqUm1moRYNyMIXVWBAU","state":"VIC","distance":null,"travelTime":null,"postcode":[3792]},{"lat":-38.4020301,"lng":144.9523105,"name":"Main Ridge","types":"['locality', 'political']","placeID":"ChIJ06ufEM_H1WoRgOaMIXVWBAU","state":"VIC","distance":null,"travelTime":null,"postcode":[3928]},{"lat":-38.3935632,"lng":145.1635577,"name":"Somers","types":"['locality', 'political']","placeID":"ChIJy-d2mEvo1WoRQOqMIXVWBAU","state":"VIC","distance":null,"travelTime":null,"postcode":[3927]},{"lat":-37.6714587,"lng":144.9556482,"name":"Campbellfield","types":"['locality', 'political']","placeID":"ChIJRSmniRtQ1moRYNCMIXVWBAU","state":"VIC","distance":null,"travelTime":null,"postcode":[3061]},{"lat":-38.4344541,"lng":144.9726306,"name":"Flinders","types":"['locality', 'political']","placeID":"ChIJ1aeeHDu41WoR0OaMIXVWBAU","state":"VIC","distance":null,"travelTime":null,"postcode":[3929]},{"lat":-37.7683771,"lng":145.0429223,"name":"Ivanhoe","types":"['locality', 'political']","placeID":"ChIJEaOR4ZVD1moR4NWMIXVWBAU","state":"VIC","distance":null,"travelTime":null,"postcode":[3079]},{"lat":-37.6085118,"lng":145.0313459,"name":"Wollert","types":"['locality', 'political']","placeID":"ChIJiys1t7NN1moRsM6MIXVWBAU","state":"VIC","distance":null,"travelTime":null,"postcode":[3750]},{"lat":-37.3860393,"lng":144.4463215,"name":"Ashbourne","types":"['locality', 'political']","placeID":"ChIJaZoQZFTh1moRoHagMKR5BQQ","state":"VIC","distance":null,"travelTime":null,"postcode":[3442]},{"lat":-37.8831621,"lng":145.0295877,"name":"Caulfield","types":"['locality', 'political']","placeID":"ChIJ1wik0Wxp1moRAPmMIXVWBAU","state":"VIC","distance":null,"travelTime":null,"postcode":[3162]},{"lat":-37.3090318,"lng":144.5293686,"name":"Cadello","types":"['locality', 'political']","placeID":"ChIJSzSrz_sb12oRUHigMKR5BQQ","state":"VIC","distance":null,"travelTime":null,"postcode":[3442]},{"lat":-37.2378186,"lng":145.2180643,"name":"Strath Creek","types":"['locality', 'political']","placeID":"ChIJXe_vM6fr12oRAISgMKR5BQQ","state":"VIC","distance":null,"travelTime":null,"postcode":[3658]},{"lat":-38.3237545,"lng":145.5397854,"name":"Jam Jerrup","types":"['locality', 'political']","placeID":"ChIJOxD2h9IBKmsRsG6gMKR5BQQ","state":"VIC","distance":null,"travelTime":null,"postcode":[3984]},{"lat":-37.7101374,"lng":145.0828399,"name":"Watsonia","types":"['locality', 'political']","placeID":"ChIJiwWD3_JI1moR0NGMIXVWBAU","state":"VIC","distance":null,"travelTime":null,"postcode":[3087]},{"lat":-37.4281226,"lng":144.5556723,"name":"Macedon","types":"['colloquial_area', 'locality', 'political']","placeID":"ChIJk_3FWpri1moRHEQPUt3bUFo","state":"VIC","distance":null,"travelTime":null,"postcode":[3440]},{"lat":-37.2117243,"lng":145.4242887,"name":"Yea","types":"['locality', 'political']","placeID":"ChIJq6r-bz3n12oR8IagMKR5BQQ","state":"VIC","distance":null,"travelTime":null,"postcode":[3717]},{"lat":-37.161708,"lng":145.5493211,"name":"Molesworth","types":"['locality', 'political']","placeID":"ChIJFfVL6N4BKGsRMICgMKR5BQQ","state":"VIC","distance":null,"travelTime":null,"postcode":[3718]},{"lat":-37.5530324,"lng":145.0666693,"name":"Woodstock","types":"['locality', 'political']","placeID":"ChIJwzTlU6C012oRUM6MIXVWBAU","state":"VIC","distance":null,"travelTime":null,"postcode":[3751]},{"lat":-37.7457735,"lng":144.9384576,"name":"Pascoe Vale South","types":"['locality', 'political']","placeID":"ChIJzwyZDWhb1moRQNSMIXVWBAU","state":"VIC","distance":null,"travelTime":null,"postcode":[3044]},{"lat":-38.2660372,"lng":145.5621693,"name":"Lang Lang","types":"['locality', 'political']","placeID":"ChIJqafEKmf_KWsRQG-gMKR5BQQ","state":"VIC","distance":null,"travelTime":null,"postcode":[3984]},{"lat":-37.7877787,"lng":145.0002125,"name":"Clifton Hill","types":"['locality', 'political']","placeID":"ChIJCdpiqw1D1moRgNeMIXVWBAU","state":"VIC","distance":null,"travelTime":null,"postcode":[3068]},{"lat":-37.8336968,"lng":145.3068603,"name":"Kilsyth South","types":"['locality', 'political']","placeID":"ChIJeZXr1tk61moRQNmMIXVWBAU","state":"VIC","distance":null,"travelTime":null,"postcode":[3137]},{"lat":-38.2616506,"lng":145.656803,"name":"Lang Lang East","types":"['locality', 'political']","placeID":"ChIJxaWD-nL6KWsRUG-gMKR5BQQ","state":"VIC","distance":null,"travelTime":null,"postcode":[3984]},{"lat":-38.4571048,"lng":144.1071845,"name":"Aireys Inlet","types":"['locality', 'political']","placeID":"ChIJb1x8iUd702oR4L6gMKR5BQQ","state":"VIC","distance":null,"travelTime":null,"postcode":[3231]},{"lat":-38.051641,"lng":145.1160848,"name":"Chelsea","types":"['locality', 'political']","placeID":"ChIJG_Vl7qdy1moRIOGMIXVWBAU","state":"VIC","distance":null,"travelTime":null,"postcode":[3196]},{"lat":-38.1608792,"lng":145.5341697,"name":"Koo Wee Rup North","types":"['locality', 'political']","placeID":"ChIJky6KchvjKWsRyYWRwJN8g94","state":"VIC","distance":null,"travelTime":null,"postcode":[3981]},{"lat":-37.8978502,"lng":145.0076561,"name":"Gardenvale","types":"['locality', 'political']","placeID":"ChIJ3f8dCxxp1moRUPqMIXVWBAU","state":"VIC","distance":null,"travelTime":null,"postcode":[3185]},{"lat":-37.9291842,"lng":145.4448709,"name":"Emerald","types":"['locality', 'political']","placeID":"ChIJPUf24Bch1moRoOqMIXVWBAU","state":"VIC","distance":null,"travelTime":null,"postcode":[3782]},{"lat":-37.8759793,"lng":146.0653893,"name":"Vesper","types":"['locality', 'political']","placeID":"ChIJc2yyiLhTKGsRMGqgMKR5BQQ","state":"VIC","distance":null,"travelTime":null,"postcode":[3833]},{"lat":-38.3816757,"lng":145.5513194,"name":"Pioneer Bay","types":"['locality', 'political']","placeID":"ChIJfXv1-BYBKmsR8G-gMKR5BQQ","state":"VIC","distance":null,"travelTime":null,"postcode":[3984]},{"lat":-38.2766487,"lng":144.196931,"name":"Paraparap","types":"['locality', 'political']","placeID":"ChIJE_LRXHxw1GoR1K8o_j9Or3Q","state":"VIC","distance":null,"travelTime":null,"postcode":[3240]},{"lat":-37.6521095,"lng":148.8173297,"name":"Bellbird Creek","types":"['locality', 'political']","placeID":"ChIJvYaVWoXmOmsRAESgMKR5BQQ","state":"VIC","distance":null,"travelTime":null,"postcode":[3889]},{"lat":-37.7222123,"lng":145.1037659,"name":"Yallambie","types":"['locality', 'political']","placeID":"ChIJseZqiH9I1moRwP2MIXVWBAU","state":"VIC","distance":null,"travelTime":null,"postcode":[3085]},{"lat":-37.9357967,"lng":145.4913918,"name":"Cockatoo","types":"['locality', 'political']","placeID":"ChIJ3w-sfbjYKWsRcNyMIXVWBAU","state":"VIC","distance":null,"travelTime":null,"postcode":[3781]},{"lat":-38.2124707,"lng":144.2184752,"name":"Mount Moriac","types":"['locality', 'political']","placeID":"ChIJeeKFKJVz1GoRIACNIXVWBAU","state":"VIC","distance":null,"travelTime":null,"postcode":[3240]},{"lat":-38.3141971,"lng":144.081083,"name":"Gherang","types":"['locality', 'political']","placeID":"ChIJ84X4uwB_1GoRQHOgMKR5BQQ","state":"VIC","distance":null,"travelTime":null,"postcode":[3240]},{"lat":-38.0821133,"lng":143.870744,"name":"Hesse","types":"['locality', 'political']","placeID":"ChIJh0fNMkjz02oRQLqgMKR5BQQ","state":"VIC","distance":null,"travelTime":null,"postcode":[3321]},{"lat":-37.277507,"lng":144.7366171,"name":"Lancefield","types":"['locality', 'political']","placeID":"ChIJK8NCi9On12oRsH6gMKR5BQQ","state":"VIC","distance":null,"travelTime":null,"postcode":[3435]},{"lat":-37.1735754,"lng":144.7499172,"name":"Nulla Vale","types":"['locality', 'political']","placeID":"ChIJMcE49JGf12oREIKgMKR5BQQ","state":"VIC","distance":null,"travelTime":null,"postcode":[3435]},{"lat":-37.4627312,"lng":144.6766934,"name":"Riddells Creek","types":"['locality', 'political']","placeID":"ChIJLyh2UIT91moR0IKgMKR5BQQ","state":"VIC","distance":null,"travelTime":null,"postcode":[3431]},{"lat":-37.3261102,"lng":144.4065835,"name":"Tylden","types":"['locality', 'political']","placeID":"ChIJoSIB8Gkg12oRcIWgMKR5BQQ","state":"VIC","distance":null,"travelTime":null,"postcode":[3444]},{"lat":-37.9963814,"lng":145.2504506,"name":"Eumemmerring","types":"['locality', 'political']","placeID":"ChIJm3de77QW1moRIPqMIXVWBAU","state":"VIC","distance":null,"travelTime":null,"postcode":[3177]},{"lat":-38.032286,"lng":145.2678469,"name":"Hampton Park","types":"['locality', 'political']","placeID":"ChIJneVC6nYR1moRQOCMIXVWBAU","state":"VIC","distance":null,"travelTime":null,"postcode":[3976]},{"lat":-38.1238662,"lng":145.1481719,"name":"Frankston North","types":"['locality', 'political']","placeID":"ChIJ95VZFTML1moR8OGMIXVWBAU","state":"VIC","distance":null,"travelTime":null,"postcode":[3200]},{"lat":-38.09125,"lng":145.6735317,"name":"Garfield","types":"['locality', 'political']","placeID":"ChIJy8ryqxPoKWsRAG6gMKR5BQQ","state":"VIC","distance":null,"travelTime":null,"postcode":[3814]},{"lat":-37.9412163,"lng":145.1024233,"name":"Clarinda","types":"['locality', 'political']","placeID":"ChIJI3Zs-m5r1moRUN6MIXVWBAU","state":"VIC","distance":null,"travelTime":null,"postcode":[3169]},{"lat":-37.8145771,"lng":145.2310109,"name":"Ringwood","types":"['locality', 'political']","placeID":"ChIJ22orkgk81moRkNeMIXVWBAU","state":"VIC","distance":null,"travelTime":null,"postcode":[3134]},{"lat":-37.7105356,"lng":144.9501406,"name":"Hadfield","types":"['locality', 'political']","placeID":"ChIJ2_azESZb1moRUP2MIXVWBAU","state":"VIC","distance":null,"travelTime":null,"postcode":[3046]},{"lat":-38.0350575,"lng":145.6298192,"name":"Tynong North","types":"['locality', 'political']","placeID":"ChIJI7nw5jHnKWsR0HCgMKR5BQQ","state":"VIC","distance":null,"travelTime":null,"postcode":[3813]},{"lat":-37.0033555,"lng":144.5011709,"name":"Redesdale","types":"['locality', 'political']","placeID":"ChIJ5emFztFr12oRsIKgMKR5BQQ","state":"VIC","distance":null,"travelTime":null,"postcode":[3444]},{"lat":-37.9044154,"lng":145.0439649,"name":"Ormond","types":"['locality', 'political']","placeID":"ChIJtzXwV3tp1moRMN2MIXVWBAU","state":"VIC","distance":null,"travelTime":null,"postcode":[3204]},{"lat":-37.855795,"lng":145.3640357,"name":"Olinda","types":"['locality', 'political']","placeID":"ChIJAfSDA7Yl1moRcOiMIXVWBAU","state":"VIC","distance":null,"travelTime":null,"postcode":[3788]},{"lat":-38.0231393,"lng":145.1178025,"name":"Aspendale Gardens","types":"['locality', 'political']","placeID":"ChIJvU7LEENt1moRUOCMIXVWBAU","state":"VIC","distance":null,"travelTime":null,"postcode":[3195]},{"lat":-38.0185242,"lng":145.5558126,"name":"Nar Nar Goon North","types":"['locality', 'political']","placeID":"ChIJAd2orALhKWsR0PiMIXVWBAU","state":"VIC","distance":null,"travelTime":null,"postcode":[3812]},{"lat":-37.6835831,"lng":144.5779508,"name":"Melton","types":"['colloquial_area', 'locality', 'political']","placeID":"ChIJM5YUu9_s1moRnspNqcQqlpk","state":"VIC","distance":null,"travelTime":null,"postcode":[3337]},{"lat":-36.9631498,"lng":145.1080553,"name":"Northwood","types":"['locality', 'political']","placeID":"ChIJQZbGuPGK12oR8IGgMKR5BQQ","state":"VIC","distance":null,"travelTime":null,"postcode":[3660]},{"lat":-37.8309297,"lng":145.3604746,"name":"Mount Dandenong","types":"['locality', 'political']","placeID":"ChIJsbAX4w4l1moRUNmMIXVWBAU","state":"VIC","distance":null,"travelTime":null,"postcode":[3767]},{"lat":-37.6952087,"lng":145.3460379,"name":"Yering","types":"['locality', 'political']","placeID":"ChIJydhrkvcs1moRAPuMIXVWBAU","state":"VIC","distance":null,"travelTime":null,"postcode":[3770]},{"lat":-38.6444336,"lng":146.5021448,"name":"Hedley","types":"['locality', 'political']","placeID":"ChIJefHMW_vfK2sRYGCgMKR5BQQ","state":"VIC","distance":null,"travelTime":null,"postcode":[3967]},{"lat":-37.0580067,"lng":144.9618719,"name":"Glenaroua","types":"['locality', 'political']","placeID":"ChIJyUkiWLWQ12oRoHugMKR5BQQ","state":"VIC","distance":null,"travelTime":null,"postcode":[3764]},{"lat":-38.0849833,"lng":145.6234817,"name":"Tynong","types":"['locality', 'political']","placeID":"ChIJteG9e5HmKWsRwHCgMKR5BQQ","state":"VIC","distance":null,"travelTime":null,"postcode":[3813]},{"lat":-38.5272078,"lng":145.334787,"name":"Cape Woolamai","types":"['locality', 'political']","placeID":"ChIJ6f058sPy1WoR8NOgMKR5BQU","state":"VIC","distance":null,"travelTime":null,"postcode":[3925]},{"lat":-37.7368302,"lng":145.7406629,"name":"East Warburton","types":"['locality', 'political']","placeID":"ChIJjRByP_MzKGsRgNKMIXVWBAU","state":"VIC","distance":null,"travelTime":null,"postcode":[3799]},{"lat":-37.2960445,"lng":144.9520417,"name":"Kilmore","types":"['locality', 'political']","placeID":"ChIJsQ9r7tW812oRAH6gMKR5BQQ","state":"VIC","distance":null,"travelTime":null,"postcode":[3764]},{"lat":-37.3475536,"lng":144.620467,"name":"Hesket","types":"['locality', 'political']","placeID":"ChIJJ4gxwYMC12oRUH2gMKR5BQQ","state":"VIC","distance":null,"travelTime":null,"postcode":[3442]},{"lat":-37.4300477,"lng":144.7469836,"name":"Bolinda","types":"['locality', 'political']","placeID":"ChIJl2Kwnef_1moRcHegMKR5BQQ","state":"VIC","distance":null,"travelTime":null,"postcode":[3432]},{"lat":-37.8600246,"lng":145.0593297,"name":"Glen Iris","types":"['locality', 'political']","placeID":"ChIJp5N8-eVB1moRkNqMIXVWBAU","state":"VIC","distance":null,"travelTime":null,"postcode":[3146]},{"lat":-38.1395065,"lng":145.2548626,"name":"Botanic Ridge","types":"['locality', 'political']","placeID":"ChIJhdHIF-AO1moR6JanlZq9Ytc","state":"VIC","distance":null,"travelTime":null,"postcode":[3977]},{"lat":-37.2444613,"lng":144.3240125,"name":"Drummond","types":"['locality', 'political']","placeID":"ChIJw32U04Um12oRgHqgMKR5BQQ","state":"VIC","distance":null,"travelTime":null,"postcode":[3461]},{"lat":-38.3687875,"lng":144.7712835,"name":"Blairgowrie","types":"['locality', 'political']","placeID":"ChIJwaDhXVO11WoR8OWMIXVWBAU","state":"VIC","distance":null,"travelTime":null,"postcode":[3942]},{"lat":-38.4370125,"lng":145.674704,"name":"Krowera","types":"['locality', 'political']","placeID":"ChIJV_Muqk8bKmsRIG-gMKR5BQQ","state":"VIC","distance":null,"travelTime":null,"postcode":[3945]},{"lat":-37.7823882,"lng":145.3822976,"name":"Mount Evelyn","types":"['locality', 'political']","placeID":"ChIJO_73CScv1moRkNaMIXVWBAU","state":"VIC","distance":null,"travelTime":null,"postcode":[3796]},{"lat":-38.0763552,"lng":145.123188,"name":"Carrum","types":"['locality', 'political']","placeID":"ChIJ60N1ASlz1moRQOGMIXVWBAU","state":"VIC","distance":null,"travelTime":null,"postcode":[3197]},{"lat":-38.4163915,"lng":145.7307689,"name":"Jeetho","types":"['locality', 'political']","placeID":"ChIJRVQ39pAdKmsRwG6gMKR5BQQ","state":"VIC","distance":null,"travelTime":null,"postcode":[3945]},{"lat":-37.883887,"lng":145.3423392,"name":"Ferny Creek","types":"['locality', 'political']","placeID":"ChIJR7mOT6Ik1moRYNuMIXVWBAU","state":"VIC","distance":null,"travelTime":null,"postcode":[3786]},{"lat":-37.5787769,"lng":144.7116286,"name":"Sunbury","types":"['locality', 'political']","placeID":"ChIJe_KEbHf51moRMM6MIXVWBAU","state":"VIC","distance":null,"travelTime":null,"postcode":[3429]},{"lat":-37.572694,"lng":144.7902309,"name":"Wildwood","types":"['locality', 'political']","placeID":"ChIJs7QGsQ9W1moRkPuMIXVWBAU","state":"VIC","distance":null,"travelTime":null,"postcode":[3429]},{"lat":-38.6840102,"lng":143.8388828,"name":"Grey River","types":"['locality', 'political']","placeID":"ChIJa1oG_M1D02oR0MWgMKR5BQQ","state":"VIC","distance":null,"travelTime":null,"postcode":[3234]},{"lat":-37.2998129,"lng":144.1622761,"name":"Dry Diggings","types":"['locality', 'political']","placeID":"ChIJ6axjgzjU1moRQNKgMKR5BQU","state":"VIC","distance":null,"travelTime":null,"postcode":[3461]},{"lat":-37.7673388,"lng":144.9802463,"name":"Brunswick East","types":"['locality', 'political']","placeID":"ChIJxZocKZRE1moRANaMIXVWBAU","state":"VIC","distance":null,"travelTime":null,"postcode":[3057]},{"lat":-38.1728207,"lng":144.5708508,"name":"Drysdale","types":"['locality', 'political']","placeID":"ChIJu_gXV5E61GoRgOKMIXVWBAU","state":"VIC","distance":null,"travelTime":null,"postcode":[3222]},{"lat":-37.3887595,"lng":144.2580019,"name":"Lyonville","types":"['locality', 'political']","placeID":"ChIJwUfVbGva1moRQH-gMKR5BQQ","state":"VIC","distance":null,"travelTime":null,"postcode":[3461]},{"lat":-37.7586481,"lng":144.9448586,"name":"Brunswick West","types":"['locality', 'political']","placeID":"ChIJtxogFb5c1moRUNWMIXVWBAU","state":"VIC","distance":null,"travelTime":null,"postcode":[3055]},{"lat":-38.1783774,"lng":144.4202439,"name":"Moolap","types":"['locality', 'political']","placeID":"ChIJZ807qMMV1GoRUOKMIXVWBAU","state":"VIC","distance":null,"travelTime":null,"postcode":[3221,3224]},{"lat":-38.226143,"lng":144.5416607,"name":"Wallington","types":"['locality', 'political']","placeID":"ChIJcyBGiNk-1GoRgOOMIXVWBAU","state":"VIC","distance":null,"travelTime":null,"postcode":[3221,3222]},{"lat":-38.0706505,"lng":144.3301229,"name":"Lovely Banks","types":"['locality', 'political']","placeID":"ChIJa59k24ga1GoRYOmMIXVWBAU","state":"VIC","distance":null,"travelTime":null,"postcode":[3213,3221]},{"lat":-38.1175378,"lng":145.1968162,"name":"Skye","types":"['locality', 'political']","placeID":"ChIJYwm52TUM1moRwOGMIXVWBAU","state":"VIC","distance":null,"travelTime":null,"postcode":[3977]},{"lat":-38.0196821,"lng":145.0988172,"name":"Aspendale","types":"['locality', 'political']","placeID":"ChIJgXVZnHtt1moRYOCMIXVWBAU","state":"VIC","distance":null,"travelTime":null,"postcode":[3195]},{"lat":-37.9812197,"lng":145.064387,"name":"Mentone","types":"['locality', 'political']","placeID":"ChIJ7dFxt7Vt1moRoN-MIXVWBAU","state":"VIC","distance":null,"travelTime":null,"postcode":[3194]},{"lat":-37.9987562,"lng":145.1189431,"name":"Braeside","types":"['locality', 'political']","placeID":"ChIJvz-QYCZt1moR8N-MIXVWBAU","state":"VIC","distance":null,"travelTime":null,"postcode":[3195]},{"lat":-38.0604328,"lng":145.1260029,"name":"Bonbeach","types":"['locality', 'political']","placeID":"ChIJtXsfvc9y1moRUPuMIXVWBAU","state":"VIC","distance":null,"travelTime":null,"postcode":[3196]},{"lat":-37.6730537,"lng":144.6631422,"name":"Plumpton","types":"['locality', 'political']","placeID":"ChIJUff4i4nz1moRUPmMIXVWBAU","state":"VIC","distance":null,"travelTime":null,"postcode":[3335]},{"lat":-38.0385629,"lng":145.1090316,"name":"Edithvale","types":"['locality', 'political']","placeID":"ChIJQbFLp5hy1moREOGMIXVWBAU","state":"VIC","distance":null,"travelTime":null,"postcode":[3196]},{"lat":-38.0454639,"lng":145.1358899,"name":"Chelsea Heights","types":"['locality', 'political']","placeID":"ChIJf-l2AKty1moRAOGMIXVWBAU","state":"VIC","distance":null,"travelTime":null,"postcode":[3196]},{"lat":-38.3077213,"lng":145.1837468,"name":"Hastings","types":"['locality', 'political']","placeID":"ChIJ2e8L-93m1WoRIOqMIXVWBAU","state":"VIC","distance":null,"travelTime":null,"postcode":[3915]},{"lat":-37.650278,"lng":143.883889,"name":"Buninyong","types":"['locality', 'political']","placeID":"ChIJ-UY-YmBa0WoRALigMKR5BQQ","state":"VIC","distance":null,"travelTime":null,"postcode":[3357]},{"lat":-37.9539982,"lng":145.0835119,"name":"Heatherton","types":"['locality', 'political']","placeID":"ChIJD4_co4ts1moRwN6MIXVWBAU","state":"VIC","distance":null,"travelTime":null,"postcode":[3202]},{"lat":-37.5896434,"lng":144.8779217,"name":"Yuroke","types":"['locality', 'political']","placeID":"ChIJcYFKyrFW1moR4M6MIXVWBAU","state":"VIC","distance":null,"travelTime":null,"postcode":[3063]},{"lat":-38.4513986,"lng":145.5373381,"name":"Glen Forbes","types":"['locality', 'political']","placeID":"ChIJWf5A-rcHKmsRUG6gMKR5BQQ","state":"VIC","distance":null,"travelTime":null,"postcode":[3990]},{"lat":-37.8259381,"lng":145.0972417,"name":"Surrey Hills","types":"['locality', 'political']","placeID":"ChIJD_hK1eZA1moRwNiMIXVWBAU","state":"VIC","distance":null,"travelTime":null,"postcode":[3127]},{"lat":-37.3892525,"lng":144.6378823,"name":"Cherokee","types":"['locality', 'political']","placeID":"ChIJZ4XzNPgC12oRAHmgMKR5BQQ","state":"VIC","distance":null,"travelTime":null,"postcode":[3434]},{"lat":-34.2068859,"lng":142.1366852,"name":"Mildura","types":"['locality', 'political']","placeID":"ChIJw5n37GkEw2oR8NSgMKR5BQU","state":"VIC","distance":null,"travelTime":null,"postcode":[3500,3502]},{"lat":-38.2808915,"lng":145.7825971,"name":"Poowong North","types":"['locality', 'political']","placeID":"ChIJFztVdg_zKWsREHCgMKR5BQQ","state":"VIC","distance":null,"travelTime":null,"postcode":[3988]},{"lat":-37.6225535,"lng":144.7051614,"name":"Diggers Rest","types":"['locality', 'political']","placeID":"ChIJRcGWvDX31moRIM-MIXVWBAU","state":"VIC","distance":null,"travelTime":null,"postcode":[3427]},{"lat":-37.6681704,"lng":143.8497847,"name":"Scotchmans Lead","types":"['locality', 'political']","placeID":"ChIJ5aKzlspb0WoRQHWgMKR5BQQ","state":"VIC","distance":null,"travelTime":null,"postcode":[3352]},{"lat":-38.219675,"lng":144.5912236,"name":"Mannerim","types":"['locality', 'political']","placeID":"ChIJ87QQeQY61GoRsPyMIXVWBAU","state":"VIC","distance":null,"travelTime":null,"postcode":[3222]},{"lat":-37.824234,"lng":145.0828276,"name":"Canterbury","types":"['locality', 'political']","placeID":"ChIJY_vuHQ1B1moRINmMIXVWBAU","state":"VIC","distance":null,"travelTime":null,"postcode":[3126]},{"lat":-38.1108098,"lng":145.3287992,"name":"Clyde North","types":"['locality', 'political']","placeID":"ChIJb2pq4Scb1moRIPyMIXVWBAU","state":"VIC","distance":null,"travelTime":null,"postcode":[3978]},{"lat":-37.9922563,"lng":143.9460134,"name":"Shelford","types":"['locality', 'political']","placeID":"ChIJ9eFuPWHw02oR4LygMKR5BQQ","state":"VIC","distance":null,"travelTime":null,"postcode":[3329]},{"lat":-38.1284823,"lng":145.3217471,"name":"Clyde","types":"['locality', 'political']","placeID":"ChIJ9-9EejQb1moRgOGMIXVWBAU","state":"VIC","distance":null,"travelTime":null,"postcode":[3978]},{"lat":-37.9592436,"lng":145.206837,"name":"Dandenong North","types":"['locality', 'political']","placeID":"ChIJpVWHYy0U1moRsN6MIXVWBAU","state":"VIC","distance":null,"travelTime":null,"postcode":[3175]},{"lat":-37.795271,"lng":145.2352519,"name":"Ringwood North","types":"['locality', 'political']","placeID":"ChIJmT3XdyE61moRwNWMIXVWBAU","state":"VIC","distance":null,"travelTime":null,"postcode":[3134]},{"lat":-37.8416751,"lng":145.0138468,"name":"Toorak","types":"['locality', 'political']","placeID":"ChIJxyI5I3BC1moRsNmMIXVWBAU","state":"VIC","distance":null,"travelTime":null,"postcode":[3142]},{"lat":-37.8554995,"lng":145.0206967,"name":"Armadale","types":"['locality', 'political']","placeID":"ChIJmT54ucxp1moRwNqMIXVWBAU","state":"VIC","distance":null,"travelTime":null,"postcode":[3143]},{"lat":-38.0282575,"lng":144.0484412,"name":"Teesdale","types":"['locality', 'political']","placeID":"ChIJJaAgYnT402oR0HWgMKR5BQQ","state":"VIC","distance":null,"travelTime":null,"postcode":[3328]},{"lat":-38.0802715,"lng":145.9219615,"name":"Bravington","types":"['locality', 'political']","placeID":"ChIJW3rM8bG-KWsREFugMKR5BQQ","state":"VIC","distance":null,"travelTime":null,"postcode":[3821]},{"lat":-37.7341559,"lng":144.6668051,"name":"Rockbank","types":"['locality', 'political']","placeID":"ChIJySJa7jnz1moRYNGMIXVWBAU","state":"VIC","distance":null,"travelTime":null,"postcode":[3335]},{"lat":-37.9411171,"lng":145.8704313,"name":"Gentle Annie","types":"['locality', 'political']","placeID":"ChIJRzsvuCTIKWsREF-gMKR5BQQ","state":"VIC","distance":null,"travelTime":null,"postcode":[3833]},{"lat":-37.2863659,"lng":144.4462779,"name":"Kyneton South","types":"['locality', 'political']","placeID":"ChIJVQ-Q0Q4i12oRkH6gMKR5BQQ","state":"VIC","distance":null,"travelTime":null,"postcode":[3444]},{"lat":-37.3248518,"lng":144.5236094,"name":"Woodend North","types":"['locality', 'political']","placeID":"ChIJk80XuBAc12oRMNKgMKR5BQU","state":"VIC","distance":null,"travelTime":null,"postcode":[3442]},{"lat":-38.0807838,"lng":144.2281026,"name":"Gheringhap","types":"['locality', 'political']","placeID":"ChIJAaqAsNQP1GoR8P-MIXVWBAU","state":"VIC","distance":null,"travelTime":null,"postcode":[3331]},{"lat":-38.0999888,"lng":145.9123073,"name":"Brandy Creek","types":"['locality', 'political']","placeID":"ChIJQdREB_O-KWsRAFugMKR5BQQ","state":"VIC","distance":null,"travelTime":null,"postcode":[3821]},{"lat":-38.07216,"lng":146.0082778,"name":"Buln Buln East","types":"['locality', 'political']","placeID":"ChIJMWJoGiq7KWsRcFugMKR5BQQ","state":"VIC","distance":null,"travelTime":null,"postcode":[3821]},{"lat":-37.8939393,"lng":145.9486414,"name":"Piedmont","types":"['locality', 'political']","placeID":"ChIJYda-wn-0KWsRIGagMKR5BQQ","state":"VIC","distance":null,"travelTime":null,"postcode":[3833]},{"lat":-37.7838868,"lng":146.0732592,"name":"Toorongo","types":"['locality', 'political']","placeID":"ChIJdaDLt5tTKGsRcGmgMKR5BQQ","state":"VIC","distance":null,"travelTime":null,"postcode":[3833]},{"lat":-37.3127717,"lng":144.6761261,"name":"Rochford","types":"['locality', 'political']","placeID":"ChIJcy3XC_4E12oR4IKgMKR5BQQ","state":"VIC","distance":null,"travelTime":null,"postcode":[3442]},{"lat":-37.3568266,"lng":144.5273723,"name":"Woodend","types":"['locality', 'political']","placeID":"ChIJv8kvq_8c12oRINKgMKR5BQU","state":"VIC","distance":null,"travelTime":null,"postcode":[3442]},{"lat":-37.1126592,"lng":144.5120806,"name":"Barfold","types":"['locality', 'political']","placeID":"ChIJAx8Z-wcU12oRwHagMKR5BQQ","state":"VIC","distance":null,"travelTime":null,"postcode":[3444]},{"lat":-37.7696503,"lng":145.2869678,"name":"Croydon North","types":"['locality', 'political']","placeID":"ChIJc9V6hmkw1moRYNaMIXVWBAU","state":"VIC","distance":null,"travelTime":null,"postcode":[3136]},{"lat":-37.8780576,"lng":146.0952592,"name":"Icy Creek","types":"['locality', 'political']","placeID":"ChIJiRmkhW9TKGsR8GCgMKR5BQQ","state":"VIC","distance":null,"travelTime":null,"postcode":[3833]},{"lat":-38.0991568,"lng":145.9383367,"name":"Buln Buln","types":"['locality', 'political']","placeID":"ChIJxXr4UTi8KWsRYFugMKR5BQQ","state":"VIC","distance":null,"travelTime":null,"postcode":[3821]},{"lat":-38.4998801,"lng":145.3371083,"name":"Churchill Island","types":"['locality', 'political']","placeID":"ChIJYwksAkHy1WoRANSgMKR5BQU","state":"VIC","distance":null,"travelTime":null,"postcode":[3925]},{"lat":-38.3983581,"lng":144.8985697,"name":"Boneo","types":"['locality', 'political']","placeID":"ChIJ42152ye21WoRkOaMIXVWBAU","state":"VIC","distance":null,"travelTime":null,"postcode":[3939]},{"lat":-37.8245917,"lng":146.1773877,"name":"Tanjil Bren","types":"['locality', 'political']","placeID":"ChIJg9QwjNJVKGsRIGigMKR5BQQ","state":"VIC","distance":null,"travelTime":null,"postcode":[3833]},{"lat":-37.1163433,"lng":144.8588853,"name":"Pyalong","types":"['locality', 'political']","placeID":"ChIJtWRVym6Z12oRgIKgMKR5BQQ","state":"VIC","distance":null,"travelTime":null,"postcode":[3521]},{"lat":-38.0836541,"lng":145.5697929,"name":"Nar Nar Goon","types":"['locality', 'political']","placeID":"ChIJNyWqWeHjKWsRwOCMIXVWBAU","state":"VIC","distance":null,"travelTime":null,"postcode":[3812]},{"lat":-38.5145418,"lng":145.353456,"name":"Newhaven","types":"['locality', 'political']","placeID":"ChIJTV3PuYry1WoRINSgMKR5BQU","state":"VIC","distance":null,"travelTime":null,"postcode":[3925]},{"lat":-37.4726189,"lng":144.3062343,"name":"Blackwood","types":"['locality', 'political']","placeID":"ChIJfy-xa_DE1moRIHKgMKR5BQQ","state":"VIC","distance":null,"travelTime":null,"postcode":[3458]},{"lat":-38.2156242,"lng":145.3406393,"name":"Blind Bight","types":"['locality', 'political']","placeID":"ChIJdysXHEoG1moR0OOMIXVWBAU","state":"VIC","distance":null,"travelTime":null,"postcode":[3980]},{"lat":-38.1956357,"lng":145.6391144,"name":"Catani","types":"['locality', 'political']","placeID":"ChIJ2_dI1mjlKWsRkG2gMKR5BQQ","state":"VIC","distance":null,"travelTime":null,"postcode":[3981]},{"lat":-37.0677911,"lng":144.7011909,"name":"Glenhope East","types":"['locality', 'political']","placeID":"ChIJvQL4lgR012oRAHygMKR5BQQ","state":"VIC","distance":null,"travelTime":null,"postcode":[3522]},{"lat":-38.145278,"lng":145.605833,"name":"Cora Lynn","types":"['locality', 'political']","placeID":"ChIJS_GOeDbkKWsRoG2gMKR5BQQ","state":"VIC","distance":null,"travelTime":null,"postcode":[3814]},{"lat":-37.4677799,"lng":145.2810012,"name":"Pheasant Creek","types":"['locality', 'political']","placeID":"ChIJ07S6lBXF12oRQIKgMKR5BQQ","state":"VIC","distance":null,"travelTime":null,"postcode":[3757]},{"lat":-37.8047963,"lng":146.0120848,"name":"Loch Valley","types":"['locality', 'political']","placeID":"ChIJu2ho3uVNKGsR8GKgMKR5BQQ","state":"VIC","distance":null,"travelTime":null,"postcode":[3833]},{"lat":-38.6968305,"lng":143.7954818,"name":"Sugarloaf","types":"['locality', 'political']","placeID":"ChIJ38AYztJD02oRIM2gMKR5BQQ","state":"VIC","distance":null,"travelTime":null,"postcode":[3234]},{"lat":-37.9647387,"lng":144.1394674,"name":"Lethbridge","types":"['locality', 'political']","placeID":"ChIJFRb956cH1GoREHSgMKR5BQQ","state":"VIC","distance":null,"travelTime":null,"postcode":[3332]},{"lat":-38.1009631,"lng":143.8017255,"name":"Wingeel","types":"['locality', 'political']","placeID":"ChIJrW-FEWuU02oRoL6gMKR5BQQ","state":"VIC","distance":null,"travelTime":null,"postcode":[3321]},{"lat":-38.1896022,"lng":145.4201727,"name":"Dalmore","types":"['locality', 'political']","placeID":"ChIJ86PbAZYD1moRAPyMIXVWBAU","state":"VIC","distance":null,"travelTime":null,"postcode":[3981]},{"lat":-37.9406096,"lng":144.0009829,"name":"Bamganie","types":"['locality', 'political']","placeID":"ChIJ6VPsjrLw02oR0HGgMKR5BQQ","state":"VIC","distance":null,"travelTime":null,"postcode":[3333]},{"lat":-37.735482,"lng":144.3818754,"name":"Rowsley","types":"['locality', 'political']","placeID":"ChIJseuGARW81moRIHWgMKR5BQQ","state":"VIC","distance":null,"travelTime":null,"postcode":[3340]},{"lat":-37.584159,"lng":148.9459096,"name":"Club Terrace","types":"['locality', 'political']","placeID":"ChIJpSwbuQviOmsRkEWgMKR5BQQ","state":"VIC","distance":null,"travelTime":null,"postcode":[3889]},{"lat":-37.7569847,"lng":145.35496,"name":"Lilydale","types":"['locality', 'political']","placeID":"ChIJm4eXufUu1moRINSMIXVWBAU","state":"VIC","distance":null,"travelTime":null,"postcode":[3140]},{"lat":-37.4154506,"lng":149.0101285,"name":"Combienbar","types":"['locality', 'political']","placeID":"ChIJg1GMamgJO2sRoEWgMKR5BQQ","state":"VIC","distance":null,"travelTime":null,"postcode":[3889]},{"lat":-37.4864562,"lng":148.7591419,"name":"Errinundra","types":"['locality', 'political']","placeID":"ChIJhUjgWAYfO2sRcEagMKR5BQQ","state":"VIC","distance":null,"travelTime":null,"postcode":[3889]},{"lat":-37.6778964,"lng":144.2272394,"name":"Fiskville","types":"['locality', 'political']","placeID":"ChIJBVgsFsWw1moRMHOgMKR5BQQ","state":"VIC","distance":null,"travelTime":null,"postcode":[3342]},{"lat":-37.5444159,"lng":144.1833293,"name":"Bunding","types":"['locality', 'political']","placeID":"ChIJ5zPhT4rJ1moRcHKgMKR5BQQ","state":"VIC","distance":null,"travelTime":null,"postcode":[3342]},{"lat":-37.3159517,"lng":144.8828527,"name":"Forbes","types":"['locality', 'political']","placeID":"ChIJOWPc7DOj12oRYHugMKR5BQQ","state":"VIC","distance":null,"travelTime":null,"postcode":[3764]},{"lat":-38.1060957,"lng":144.1348885,"name":"Murgheboluc","types":"['locality', 'political']","placeID":"ChIJhVPYjQ8G1GoR4HSgMKR5BQQ","state":"VIC","distance":null,"travelTime":null,"postcode":[3218,3221]},{"lat":-38.2241219,"lng":145.3084973,"name":"Warneet","types":"['locality', 'political']","placeID":"ChIJYSglXsEH1moRUOSMIXVWBAU","state":"VIC","distance":null,"travelTime":null,"postcode":[3980]},{"lat":-37.760599,"lng":145.142697,"name":"Templestowe","types":"['locality', 'political']","placeID":"ChIJPRflEAo41moRUNSMIXVWBAU","state":"VIC","distance":null,"travelTime":null,"postcode":[3106]},{"lat":-37.5308008,"lng":145.3405265,"name":"Kinglake","types":"['locality', 'political']","placeID":"ChIJA7S4wV_Q12oRUP-MIXVWBAU","state":"VIC","distance":null,"travelTime":null,"postcode":[3763]},{"lat":-38.6318726,"lng":143.7790297,"name":"Kennett River","types":"['locality', 'political']","placeID":"ChIJIbHFhyNp02oRQMegMKR5BQQ","state":"VIC","distance":null,"travelTime":null,"postcode":[3221,3234]},{"lat":-37.8769518,"lng":145.2329617,"name":"Wantirna South","types":"['locality', 'political']","placeID":"ChIJrUQfOp8-1moRMNuMIXVWBAU","state":"VIC","distance":null,"travelTime":null,"postcode":[3152]},{"lat":-37.3804725,"lng":144.6658346,"name":"Kerrie","types":"['locality', 'political']","placeID":"ChIJASu-o4ID12oR0H2gMKR5BQQ","state":"VIC","distance":null,"travelTime":null,"postcode":[3434]},{"lat":-37.7891081,"lng":145.1619649,"name":"Doncaster East","types":"['locality', 'political']","placeID":"ChIJBRNa-41G1moRwNSMIXVWBAU","state":"VIC","distance":null,"travelTime":null,"postcode":[3109]},{"lat":-37.2391971,"lng":144.368372,"name":"Lauriston","types":"['locality', 'political']","placeID":"ChIJT1Fi4eEj12oR4H6gMKR5BQQ","state":"VIC","distance":null,"travelTime":null,"postcode":[3444]},{"lat":-37.1438172,"lng":144.4451245,"name":"Metcalfe East","types":"['locality', 'political']","placeID":"ChIJ04GIKGsW12oRAICgMKR5BQQ","state":"VIC","distance":null,"travelTime":null,"postcode":[3444]},{"lat":-36.9955461,"lng":144.5725412,"name":"Mia Mia","types":"['locality', 'political']","placeID":"ChIJG1MAM9Zv12oREICgMKR5BQQ","state":"VIC","distance":null,"travelTime":null,"postcode":[3444]},{"lat":-37.773724,"lng":145.2480685,"name":"Warranwood","types":"['locality', 'political']","placeID":"ChIJVxTA9pkw1moRMPyMIXVWBAU","state":"VIC","distance":null,"travelTime":null,"postcode":[3134]},{"lat":-38.179426,"lng":144.3693413,"name":"Breakwater","types":"['locality', 'political']","placeID":"ChIJ1cD6BGkU1GoRIOOMIXVWBAU","state":"VIC","distance":null,"travelTime":null,"postcode":[3219]},{"lat":-38.1460904,"lng":145.424612,"name":"Cardinia","types":"['locality', 'political']","placeID":"ChIJQzXgkEUD1moRMP6MIXVWBAU","state":"VIC","distance":null,"travelTime":null,"postcode":[3978]},{"lat":-37.6948854,"lng":145.0622727,"name":"Bundoora","types":"['locality', 'political']","placeID":"ChIJR7Q5hb9I1moRMNGMIXVWBAU","state":"VIC","distance":null,"travelTime":null,"postcode":[3083]},{"lat":-38.4597505,"lng":144.9041542,"name":"Cape Schanck","types":"['locality', 'political']","placeID":"ChIJC1-4Tj211WoRwOaMIXVWBAU","state":"VIC","distance":null,"travelTime":null,"postcode":[3939]},{"lat":-37.8010393,"lng":145.1108602,"name":"Mont Albert North","types":"['locality', 'political']","placeID":"ChIJH2ZADTRH1moREP6MIXVWBAU","state":"VIC","distance":null,"travelTime":null,"postcode":[3129]},{"lat":-38.6288191,"lng":143.8980554,"name":"Separation Creek","types":"['locality', 'political']","placeID":"ChIJgeWEJxNv02oRgMygMKR5BQQ","state":"VIC","distance":null,"travelTime":null,"postcode":[3234]},{"lat":-37.7745507,"lng":145.2637942,"name":"Croydon Hills","types":"['locality', 'political']","placeID":"ChIJwT_28Igw1moRUP6MIXVWBAU","state":"VIC","distance":null,"travelTime":null,"postcode":[3136]},{"lat":-38.22882,"lng":145.0600448,"name":"Mornington","types":"['locality', 'political']","placeID":"ChIJVem7erze1WoRIOSMIXVWBAU","state":"VIC","distance":null,"travelTime":null,"postcode":[3931]},{"lat":-36.9478462,"lng":144.4703415,"name":"Lyal","types":"['locality', 'political']","placeID":"ChIJe-trAiZo12oRsJKgMKR5BQQ","state":"VIC","distance":null,"travelTime":null,"postcode":[3444]},{"lat":-38.0618935,"lng":145.7142373,"name":"Bunyip North","types":"['locality', 'political']","placeID":"ChIJaQO4Y1LCKWsRUG2gMKR5BQQ","state":"VIC","distance":null,"travelTime":null,"postcode":[3815]},{"lat":-38.5014878,"lng":145.2556133,"name":"Smiths Beach","types":"['locality', 'political']","placeID":"ChIJp9dLJu_s1WoRYNSgMKR5BQU","state":"VIC","distance":null,"travelTime":null,"postcode":[3922]},{"lat":-38.0425155,"lng":145.6765601,"name":"Garfield North","types":"['locality', 'political']","placeID":"ChIJaR8Uqa_DKWsREG6gMKR5BQQ","state":"VIC","distance":null,"travelTime":null,"postcode":[3814]},{"lat":-37.8181073,"lng":145.1238563,"name":"Box Hill","types":"['locality', 'political']","placeID":"ChIJ9xkrVKVA1moRANmMIXVWBAU","state":"VIC","distance":null,"travelTime":null,"postcode":[3128]},{"lat":-38.0382942,"lng":145.7876027,"name":"Labertouche","types":"['locality', 'political']","placeID":"ChIJeVjIK9jGKWsRIGKgMKR5BQQ","state":"VIC","distance":null,"travelTime":null,"postcode":[3816]},{"lat":-38.5065092,"lng":145.1452175,"name":"Summerlands","types":"['locality', 'political']","placeID":"ChIJDbAWVWCV1WoRcNSgMKR5BQU","state":"VIC","distance":null,"travelTime":null,"postcode":[3922]},{"lat":-38.496511,"lng":145.2652123,"name":"Sunset Strip","types":"['locality', 'political']","placeID":"ChIJCXl3B__s1WoRkNSgMKR5BQU","state":"VIC","distance":null,"travelTime":null,"postcode":[3922]},{"lat":-38.1117029,"lng":145.7678089,"name":"Longwarry","types":"['locality', 'political']","placeID":"ChIJfxm38sHBKWsREGOgMKR5BQQ","state":"VIC","distance":null,"travelTime":null,"postcode":[3816]},{"lat":-38.0756597,"lng":145.7629135,"name":"Longwarry North","types":"['locality', 'political']","placeID":"ChIJgdZBqaTBKWsRIGOgMKR5BQQ","state":"VIC","distance":null,"travelTime":null,"postcode":[3816]},{"lat":-37.8547215,"lng":144.992833,"name":"Windsor","types":"['locality', 'political']","placeID":"ChIJgwzadTxo1moREPiMIXVWBAU","state":"VIC","distance":null,"travelTime":null,"postcode":[3181]},{"lat":-38.1101266,"lng":144.3375256,"name":"Bell Park","types":"['locality', 'political']","placeID":"ChIJBWy3Hi8R1GoRgOmMIXVWBAU","state":"VIC","distance":null,"travelTime":null,"postcode":[3215]},{"lat":-38.2182331,"lng":144.3260547,"name":"Mount Duneed","types":"['locality', 'political']","placeID":"ChIJ4ZcShpF61GoRYOSMIXVWBAU","state":"VIC","distance":null,"travelTime":null,"postcode":[3216,3217]},{"lat":-37.5939825,"lng":144.9100319,"name":"Craigieburn","types":"['locality', 'political']","placeID":"ChIJg4rzIDJS1moRoM6MIXVWBAU","state":"VIC","distance":null,"travelTime":null,"postcode":[3064]},{"lat":-38.4722564,"lng":145.1873299,"name":"Ventnor","types":"['locality', 'political']","placeID":"ChIJ1bPU3j7r1WoRsNSgMKR5BQU","state":"VIC","distance":null,"travelTime":null,"postcode":[3922]},{"lat":-36.3135283,"lng":145.0496442,"name":"Kyabram","types":"['locality', 'political']","placeID":"ChIJI7IWyfnz2GoRYJGgMKR5BQQ","state":"VIC","distance":null,"travelTime":null,"postcode":[3619,3620]},{"lat":-38.1753785,"lng":144.342376,"name":"Belmont","types":"['locality', 'political']","placeID":"ChIJW6I7mX4T1GoREOOMIXVWBAU","state":"VIC","distance":null,"travelTime":null,"postcode":[3216]},{"lat":-38.0967519,"lng":144.3721018,"name":"North Shore","types":"['locality', 'political']","placeID":"ChIJ9ysryWoX1GoRsOGMIXVWBAU","state":"VIC","distance":null,"travelTime":null,"postcode":[3214]},{"lat":-37.6655588,"lng":145.0165638,"name":"Lalor","types":"['locality', 'political']","placeID":"ChIJAxYK7wZP1moRsNCMIXVWBAU","state":"VIC","distance":null,"travelTime":null,"postcode":[3075]},{"lat":-38.1430788,"lng":144.3478414,"name":"Geelong West","types":"['locality', 'political']","placeID":"ChIJFclg_f0T1GoR0OmMIXVWBAU","state":"VIC","distance":null,"travelTime":null,"postcode":[3218]},{"lat":-38.1387195,"lng":144.7081973,"name":"Indented Head","types":"['locality', 'political']","placeID":"ChIJrX5BhJ4u1GoRAOKMIXVWBAU","state":"VIC","distance":null,"travelTime":null,"postcode":[3223]},{"lat":-37.8385248,"lng":145.120253,"name":"Box Hill South","types":"['locality', 'political']","placeID":"ChIJkzbUrpFA1moRkNmMIXVWBAU","state":"VIC","distance":null,"travelTime":null,"postcode":[3128]},{"lat":-38.4633453,"lng":145.2998754,"name":"Rhyll","types":"['locality', 'political']","placeID":"ChIJsXZceMft1WoRMNSgMKR5BQU","state":"VIC","distance":null,"travelTime":null,"postcode":[3923]},{"lat":-37.5425658,"lng":144.9687496,"name":"Donnybrook","types":"['locality', 'political']","placeID":"ChIJEwh9F8qy12oRyyjvZ5jNhJA","state":"VIC","distance":null,"travelTime":null,"postcode":[3064]},{"lat":-38.3737874,"lng":145.1268977,"name":"Balnarring","types":"['locality', 'political']","placeID":"ChIJM_SzrZLd1WoRMOqMIXVWBAU","state":"VIC","distance":null,"travelTime":null,"postcode":[3926]},{"lat":-37.9104488,"lng":145.0337951,"name":"McKinnon","types":"['locality', 'political']","placeID":"ChIJ6bALP71p1moR0N2MIXVWBAU","state":"VIC","distance":null,"travelTime":null,"postcode":[]},{"lat":-38.1364447,"lng":144.3326232,"name":"Manifold Heights","types":"['locality', 'political']","placeID":"ChIJt70OsuMT1GoRwOmMIXVWBAU","state":"VIC","distance":null,"travelTime":null,"postcode":[3218]},{"lat":-37.8383833,"lng":144.2598453,"name":"Staughton Vale","types":"['locality', 'political']","placeID":"ChIJ9RlW3Qup1moRkHWgMKR5BQQ","state":"VIC","distance":null,"travelTime":null,"postcode":[3221,3340]},{"lat":-38.1913475,"lng":144.4734269,"name":"Leopold","types":"['locality', 'political']","placeID":"ChIJaRjXn2k-1GoRYOOMIXVWBAU","state":"VIC","distance":null,"travelTime":null,"postcode":[3224]},{"lat":-38.1872268,"lng":145.0920162,"name":"Mount Eliza","types":"['locality', 'political']","placeID":"ChIJ1X2NIqDf1WoR4OKMIXVWBAU","state":"VIC","distance":null,"travelTime":null,"postcode":[3930]},{"lat":-38.1712632,"lng":144.7173459,"name":"St Leonards","types":"['locality', 'political']","placeID":"ChIJaauyV-Ex1GoRoOKMIXVWBAU","state":"VIC","distance":null,"travelTime":null,"postcode":[3223]},{"lat":-38.1686288,"lng":144.1605474,"name":"Gnarwarre","types":"['locality', 'political']","placeID":"ChIJEUgJ6hoL1GoRcHOgMKR5BQQ","state":"VIC","distance":null,"travelTime":null,"postcode":[3221]},{"lat":-38.1154932,"lng":144.6566531,"name":"Portarlington","types":"['locality', 'political']","placeID":"ChIJy_rVY1Qu1GoR4OGMIXVWBAU","state":"VIC","distance":null,"travelTime":null,"postcode":[3223]},{"lat":-38.0328294,"lng":145.6015815,"name":"Maryknoll","types":"['locality', 'political']","placeID":"ChIJQbRx1u3dKWsRcG-gMKR5BQQ","state":"VIC","distance":null,"travelTime":null,"postcode":[3812]},{"lat":-37.8945334,"lng":145.0205148,"name":"Caulfield South","types":"['locality', 'political']","placeID":"ChIJ1wik0Wxp1moRUNyMIXVWBAU","state":"VIC","distance":null,"travelTime":null,"postcode":[3162]},{"lat":-38.2369286,"lng":144.5631224,"name":"Marcus Hill","types":"['locality', 'political']","placeID":"ChIJKwNjLaM51GoRAOSMIXVWBAU","state":"VIC","distance":null,"travelTime":null,"postcode":[3222]},{"lat":-38.481133,"lng":145.2332955,"name":"Wimbledon Heights","types":"['locality', 'political']","placeID":"ChIJLV7HIGns1WoRwNSgMKR5BQU","state":"VIC","distance":null,"travelTime":null,"postcode":[3922]},{"lat":-38.2575996,"lng":144.5354186,"name":"Ocean Grove","types":"['locality', 'political']","placeID":"ChIJOQizfuw41GoRMOSMIXVWBAU","state":"VIC","distance":null,"travelTime":null,"postcode":[3226]},{"lat":-38.123507,"lng":144.2285359,"name":"Stonehaven","types":"['locality', 'political']","placeID":"ChIJw-OOHQUS1GoRAACNIXVWBAU","state":"VIC","distance":null,"travelTime":null,"postcode":[3218,3221]},{"lat":-37.9188435,"lng":145.0417166,"name":"Bentleigh","types":"['locality', 'political']","placeID":"ChIJBepK6U9p1moREN6MIXVWBAU","state":"VIC","distance":null,"travelTime":null,"postcode":[3204]},{"lat":-37.9627552,"lng":145.954065,"name":"Neerim","types":"['locality', 'political']","placeID":"ChIJeapnfGyxKWsRUGWgMKR5BQQ","state":"VIC","distance":null,"travelTime":null,"postcode":[3831]},{"lat":-37.9711115,"lng":145.9994818,"name":"Neerim East","types":"['locality', 'political']","placeID":"ChIJk8_psSWuKWsRYGWgMKR5BQQ","state":"VIC","distance":null,"travelTime":null,"postcode":[3831]},{"lat":-37.7582167,"lng":148.9643547,"name":"Bemm River","types":"['locality', 'political']","placeID":"ChIJz6YqaNXoOmsREESgMKR5BQQ","state":"VIC","distance":null,"travelTime":null,"postcode":[3889]},{"lat":-38.0172497,"lng":145.9535087,"name":"Neerim South","types":"['locality', 'political']","placeID":"ChIJT1vZw6uxKWsRkGWgMKR5BQQ","state":"VIC","distance":null,"travelTime":null,"postcode":[3831]},{"lat":-37.7963916,"lng":145.1791034,"name":"Donvale","types":"['locality', 'political']","placeID":"ChIJX199D6051moRcNaMIXVWBAU","state":"VIC","distance":null,"travelTime":null,"postcode":[3111]},{"lat":-38.2690339,"lng":144.6601221,"name":"Queenscliff","types":"['locality', 'political']","placeID":"ChIJfx4m2R431GoRsOSMIXVWBAU","state":"VIC","distance":null,"travelTime":null,"postcode":[3225]},{"lat":-37.7578654,"lng":145.118525,"name":"Templestowe Lower","types":"['locality', 'political']","placeID":"ChIJ6btARadH1moRENWMIXVWBAU","state":"VIC","distance":null,"travelTime":null,"postcode":[3107]},{"lat":-37.778055,"lng":145.2148636,"name":"Park Orchards","types":"['locality', 'political']","placeID":"ChIJvXaGhu051moRINaMIXVWBAU","state":"VIC","distance":null,"travelTime":null,"postcode":[3114]},{"lat":-38.0994897,"lng":145.1726257,"name":"Carrum Downs","types":"['locality', 'political']","placeID":"ChIJHyqi4_sM1moRcOGMIXVWBAU","state":"VIC","distance":null,"travelTime":null,"postcode":[3201]},{"lat":-37.7044897,"lng":148.7093091,"name":"Cabbage Tree Creek","types":"['locality', 'political']","placeID":"ChIJpfL2SznDOmsRIEWgMKR5BQQ","state":"VIC","distance":null,"travelTime":null,"postcode":[3889]},{"lat":-37.8688878,"lng":144.9944005,"name":"Balaclava","types":"['locality', 'political']","placeID":"ChIJb9p7rVpo1moR4PiMIXVWBAU","state":"VIC","distance":null,"travelTime":null,"postcode":[3183]},{"lat":-38.3893766,"lng":145.0913444,"name":"Merricks","types":"['locality', 'political']","placeID":"ChIJ_xQ9S33B1WoRcOaMIXVWBAU","state":"VIC","distance":null,"travelTime":null,"postcode":[3916]},{"lat":-37.7473655,"lng":145.2099924,"name":"Warrandyte","types":"['locality', 'political']","placeID":"ChIJq3YOujk31moR4NOMIXVWBAU","state":"VIC","distance":null,"travelTime":null,"postcode":[3113]},{"lat":-37.9156746,"lng":145.0159759,"name":"Brighton East","types":"['locality', 'political']","placeID":"ChIJpebFiDBp1moRYN2MIXVWBAU","state":"VIC","distance":null,"travelTime":null,"postcode":[3187]},{"lat":-38.1700015,"lng":144.2262889,"name":"Barrabool","types":"['locality', 'political']","placeID":"ChIJ-bhG0S0N1GoREACNIXVWBAU","state":"VIC","distance":null,"travelTime":null,"postcode":[3221]},{"lat":-37.840837,"lng":145.0360838,"name":"Kooyong","types":"['locality', 'political']","placeID":"ChIJv9ZOIRdC1moR8PeMIXVWBAU","state":"VIC","distance":null,"travelTime":null,"postcode":[3144]},{"lat":-38.1385267,"lng":144.3126742,"name":"Fyansford","types":"['locality', 'political']","placeID":"ChIJn8KjGSUS1GoR0OGMIXVWBAU","state":"VIC","distance":null,"travelTime":null,"postcode":[3218,3221]},{"lat":-37.8021095,"lng":145.0019064,"name":"Abbotsford","types":"['locality', 'political']","placeID":"ChIJc4YExwBD1moRsOeMIXVWBAU","state":"VIC","distance":null,"travelTime":null,"postcode":[3067]},{"lat":-37.7315238,"lng":144.9384853,"name":"Pascoe Vale","types":"['locality', 'political']","placeID":"ChIJD88FE2Rb1moRMNOMIXVWBAU","state":"VIC","distance":null,"travelTime":null,"postcode":[3044]},{"lat":-37.7611439,"lng":145.2523502,"name":"Warrandyte South","types":"['locality', 'political']","placeID":"ChIJ2WAD5L4w1moR0NSMIXVWBAU","state":"VIC","distance":null,"travelTime":null,"postcode":[3134]},{"lat":-38.1638482,"lng":144.3616127,"name":"South Geelong","types":"['locality', 'political']","placeID":"ChIJeXAFfm4U1GoRsOKMIXVWBAU","state":"VIC","distance":null,"travelTime":null,"postcode":[3220]},{"lat":-38.274423,"lng":144.4884287,"name":"Barwon Heads","types":"['locality', 'political']","placeID":"ChIJwQFyIJBA1GoRoOSMIXVWBAU","state":"VIC","distance":null,"travelTime":null,"postcode":[3227]},{"lat":-37.7814219,"lng":145.4315015,"name":"Wandin North","types":"['locality', 'political']","placeID":"ChIJM1Qlgmsp1moRkNSMIXVWBAU","state":"VIC","distance":null,"travelTime":null,"postcode":[3139]},{"lat":-37.8668061,"lng":145.0027144,"name":"St Kilda East","types":"['locality', 'political']","placeID":"ChIJOU0ZRLFp1moRINuMIXVWBAU","state":"VIC","distance":null,"travelTime":null,"postcode":[3183]},{"lat":-37.7800363,"lng":145.5303459,"name":"Woori Yallock","types":"['locality', 'political']","placeID":"ChIJ3yBFeUnUKWsRkNWMIXVWBAU","state":"VIC","distance":null,"travelTime":null,"postcode":[3139]},{"lat":-37.8017621,"lng":145.1268438,"name":"Box Hill North","types":"['locality', 'political']","placeID":"ChIJ6wnSWKA41moR4NeMIXVWBAU","state":"VIC","distance":null,"travelTime":null,"postcode":[3129]},{"lat":-37.8388667,"lng":145.151231,"name":"Blackburn South","types":"['locality', 'political']","placeID":"ChIJA576x2c_1moRoNmMIXVWBAU","state":"VIC","distance":null,"travelTime":null,"postcode":[3130]},{"lat":-38.110582,"lng":145.1310544,"name":"Seaford","types":"['locality', 'political']","placeID":"ChIJfzxKddAM1moRoOGMIXVWBAU","state":"VIC","distance":null,"travelTime":null,"postcode":[3198]},{"lat":-37.8184273,"lng":145.1760206,"name":"Nunawading","types":"['locality', 'political']","placeID":"ChIJD5EGdC0_1moRUNiMIXVWBAU","state":"VIC","distance":null,"travelTime":null,"postcode":[3131]},{"lat":-38.452452,"lng":145.2615674,"name":"Silverleaves","types":"['locality', 'political']","placeID":"ChIJ34lzMM3t1WoRUNSgMKR5BQU","state":"VIC","distance":null,"travelTime":null,"postcode":[3922]},{"lat":-37.5788057,"lng":145.3787582,"name":"Steels Creek","types":"['locality', 'political']","placeID":"ChIJC0NyFmrR12oRYPqMIXVWBAU","state":"VIC","distance":null,"travelTime":null,"postcode":[3775]},{"lat":-37.856512,"lng":145.1836152,"name":"Vermont South","types":"['locality', 'political']","placeID":"ChIJF5Dx4bc-1moRYNqMIXVWBAU","state":"VIC","distance":null,"travelTime":null,"postcode":[3133]},{"lat":-37.742966,"lng":145.5920441,"name":"Don Valley","types":"['locality', 'political']","placeID":"ChIJWYDwmbAsKGsRYNSMIXVWBAU","state":"VIC","distance":null,"travelTime":null,"postcode":[3139]},{"lat":-38.0940007,"lng":144.2603992,"name":"Batesford","types":"['locality', 'political']","placeID":"ChIJK0iNVbYR1GoRoPqMIXVWBAU","state":"VIC","distance":null,"travelTime":null,"postcode":[3213,3221]},{"lat":-37.8135625,"lng":145.2693411,"name":"Croydon South","types":"['locality', 'political']","placeID":"ChIJhxTZhPA61moRkNiMIXVWBAU","state":"VIC","distance":null,"travelTime":null,"postcode":[3136]},{"lat":-37.1493108,"lng":145.5831185,"name":"Cathkin","types":"['locality', 'political']","placeID":"ChIJcQXwyD0HKGsR0HigMKR5BQQ","state":"VIC","distance":null,"travelTime":null,"postcode":[3714]},{"lat":-37.201837,"lng":145.6034866,"name":"Whanregarwen","types":"['locality', 'political']","placeID":"ChIJLRzLe3oGKGsRQIagMKR5BQQ","state":"VIC","distance":null,"travelTime":null,"postcode":[3714]},{"lat":-37.8137271,"lng":145.5081658,"name":"Yellingbo","types":"['locality', 'political']","placeID":"ChIJxeVDaI7WKWsRENiMIXVWBAU","state":"VIC","distance":null,"travelTime":null,"postcode":[3139]},{"lat":-37.9384236,"lng":145.0305184,"name":"Hampton East","types":"['locality', 'political']","placeID":"ChIJ0-gE6rlu1moR4P6MIXVWBAU","state":"VIC","distance":null,"travelTime":null,"postcode":[3188]},{"lat":-37.1569099,"lng":145.6593168,"name":"Koriella","types":"['locality', 'political']","placeID":"ChIJxRAIpVf9J2sRcH6gMKR5BQQ","state":"VIC","distance":null,"travelTime":null,"postcode":[3714]},{"lat":-37.1115172,"lng":145.7021287,"name":"Fawcett","types":"['locality', 'political']","placeID":"ChIJXSOmMBTkJ2sRIHugMKR5BQQ","state":"VIC","distance":null,"travelTime":null,"postcode":[3714]},{"lat":-37.2587906,"lng":145.702904,"name":"Acheron","types":"['locality', 'political']","placeID":"ChIJw86mUx4PKGsRAHagMKR5BQQ","state":"VIC","distance":null,"travelTime":null,"postcode":[3714]},{"lat":-37.3216597,"lng":145.7118259,"name":"Taggerty","types":"['locality', 'political']","placeID":"ChIJuyR7dbcRKGsRYISgMKR5BQQ","state":"VIC","distance":null,"travelTime":null,"postcode":[3714]},{"lat":-37.1403755,"lng":145.7586323,"name":"Maintongoon","types":"['locality', 'political']","placeID":"ChIJ9-0bR43mJ2sRYH-gMKR5BQQ","state":"VIC","distance":null,"travelTime":null,"postcode":[3714]},{"lat":-37.3730937,"lng":145.2823538,"name":"Hazeldene","types":"['locality', 'political']","placeID":"ChIJby57wUrB12oR8HygMKR5BQQ","state":"VIC","distance":null,"travelTime":null,"postcode":[3658]},{"lat":-37.1641574,"lng":145.3727543,"name":"Ghin Ghin","types":"['locality', 'political']","placeID":"ChIJcRp4ljb612oRkHugMKR5BQQ","state":"VIC","distance":null,"travelTime":null,"postcode":[3717]},{"lat":-37.9487211,"lng":145.1529433,"name":"Springvale","types":"['locality', 'political']","placeID":"ChIJ35Dd08AU1moRQN6MIXVWBAU","state":"VIC","distance":null,"travelTime":null,"postcode":[3171]},{"lat":-37.7006818,"lng":145.831409,"name":"Mcmahons Creek","types":"['locality', 'political']","placeID":"ChIJqyNCIfw3KGsRgG-gMKR5BQQ","state":"VIC","distance":null,"travelTime":null,"postcode":[3799]},{"lat":-37.975381,"lng":145.0161708,"name":"Black Rock","types":"['locality', 'political']","placeID":"ChIJWQzJTkNu1moRUN-MIXVWBAU","state":"VIC","distance":null,"travelTime":null,"postcode":[3193]},{"lat":-37.3172977,"lng":145.2925492,"name":"Flowerdale","types":"['locality', 'political']","placeID":"ChIJJ-D1xt3p12oRUHugMKR5BQQ","state":"VIC","distance":null,"travelTime":null,"postcode":[3717]},{"lat":-37.9048347,"lng":145.1458611,"name":"Notting Hill","types":"['locality', 'political']","placeID":"ChIJrxOtB0sV1moRQPmMIXVWBAU","state":"VIC","distance":null,"travelTime":null,"postcode":[3168]},{"lat":-37.1320593,"lng":145.2291738,"name":"Trawool","types":"['locality', 'political']","placeID":"ChIJmzGcGhvu12oRMIWgMKR5BQQ","state":"VIC","distance":null,"travelTime":null,"postcode":[3660]},{"lat":-37.4235474,"lng":145.422932,"name":"Glenburn","types":"['locality', 'political']","placeID":"ChIJh49SeGfe12oRsHugMKR5BQQ","state":"VIC","distance":null,"travelTime":null,"postcode":[3717]},{"lat":-37.191627,"lng":145.7097595,"name":"Alexandra","types":"['locality', 'political']","placeID":"ChIJmXq03wIJKGsRMHagMKR5BQQ","state":"VIC","distance":null,"travelTime":null,"postcode":[3714]},{"lat":-37.9989202,"lng":145.1743519,"name":"Keysborough","types":"['locality', 'political']","placeID":"ChIJ5zKWCRoT1moRwN-MIXVWBAU","state":"VIC","distance":null,"travelTime":null,"postcode":[3173]},{"lat":-37.9709927,"lng":145.1485377,"name":"Springvale South","types":"['locality', 'political']","placeID":"ChIJnSWsl6cU1moRQN-MIXVWBAU","state":"VIC","distance":null,"travelTime":null,"postcode":[3172]},{"lat":-37.2053052,"lng":145.8205337,"name":"Devils River","types":"['locality', 'political']","placeID":"ChIJ32-nDpfgJ2sRYHqgMKR5BQQ","state":"VIC","distance":null,"travelTime":null,"postcode":[3714]},{"lat":-37.9255978,"lng":145.0951545,"name":"Oakleigh South","types":"['locality', 'political']","placeID":"ChIJZbBNUBBr1moR4N2MIXVWBAU","state":"VIC","distance":null,"travelTime":null,"postcode":[3167]},{"lat":-38.0316959,"lng":145.2120596,"name":"Dandenong South","types":"['locality', 'political']","placeID":"ChIJBWqsgNET1moRcOCMIXVWBAU","state":"VIC","distance":null,"travelTime":null,"postcode":[3164,3175]},{"lat":-38.1891625,"lng":144.3922438,"name":"St Albans Park","types":"['locality', 'political']","placeID":"ChIJ02EX9f0U1GoRYPyMIXVWBAU","state":"VIC","distance":null,"travelTime":null,"postcode":[3219]},{"lat":-37.0310571,"lng":145.0500062,"name":"Hilldene","types":"['locality', 'political']","placeID":"ChIJa7I2x-OR12oR0NGgMKR5BQU","state":"VIC","distance":null,"travelTime":null,"postcode":[3660]},{"lat":-38.5485042,"lng":145.5663462,"name":"Archies Creek","types":"['locality', 'political']","placeID":"ChIJgbvAo4cLKmsR0GygMKR5BQQ","state":"VIC","distance":null,"travelTime":null,"postcode":[3995]},{"lat":-37.7358108,"lng":145.2714095,"name":"Wonga Park","types":"['locality', 'political']","placeID":"ChIJa_L-wwgx1moRYNKMIXVWBAU","state":"VIC","distance":null,"travelTime":null,"postcode":[3115]},{"lat":-38.4788657,"lng":145.4700059,"name":"Bass","types":"['locality', 'political']","placeID":"ChIJC7vu_9731WoR8GygMKR5BQQ","state":"VIC","distance":null,"travelTime":null,"postcode":[3991]},{"lat":-38.1973449,"lng":144.3573278,"name":"Marshall","types":"['locality', 'political']","placeID":"ChIJOyB0DuoU1GoRoOOMIXVWBAU","state":"VIC","distance":null,"travelTime":null,"postcode":[3216]},{"lat":-38.1705185,"lng":144.3914469,"name":"Newcomb","types":"['locality', 'political']","placeID":"ChIJdT6ZWtEV1GoR0OKMIXVWBAU","state":"VIC","distance":null,"travelTime":null,"postcode":[3219]},{"lat":-38.6060046,"lng":145.5910694,"name":"Wonthaggi","types":"['locality', 'political']","placeID":"ChIJO-20rpcMKmsRAN2gMKR5BQU","state":"VIC","distance":null,"travelTime":null,"postcode":[3995]},{"lat":-38.5256039,"lng":145.4477403,"name":"Anderson","types":"['locality', 'political']","placeID":"ChIJk_I93dL11WoRwGygMKR5BQQ","state":"VIC","distance":null,"travelTime":null,"postcode":[3995]},{"lat":-37.7211002,"lng":144.0520573,"name":"Mount Doran","types":"['locality', 'political']","placeID":"ChIJy1mC61JS0WoRoHSgMKR5BQQ","state":"VIC","distance":null,"travelTime":null,"postcode":[3334]},{"lat":-38.1498077,"lng":144.3346349,"name":"Newtown","types":"['locality', 'political']","placeID":"ChIJiZ0RRe0T1GoR8OmMIXVWBAU","state":"VIC","distance":null,"travelTime":null,"postcode":[3220,3351]},{"lat":-38.5804098,"lng":145.6297018,"name":"St Clair","types":"['locality', 'political']","placeID":"ChIJc1XjvBoOKmsR81ep-AguYuk","state":"VIC","distance":null,"travelTime":null,"postcode":[3995]},{"lat":-38.1339366,"lng":144.3191938,"name":"Herne Hill","types":"['locality', 'political']","placeID":"ChIJ1wZmD18R1GoRsOmMIXVWBAU","state":"VIC","distance":null,"travelTime":null,"postcode":[3218]},{"lat":-37.7835791,"lng":144.1450944,"name":"Morrisons","types":"['locality', 'political']","placeID":"ChIJZwJI6Her1moRkHSgMKR5BQQ","state":"VIC","distance":null,"travelTime":null,"postcode":[3334]},{"lat":-37.6632423,"lng":144.5091234,"name":"Long Forest","types":"['locality', 'political']","placeID":"ChIJ7fLjfUHr1moR0PmMIXVWBAU","state":"VIC","distance":null,"travelTime":null,"postcode":[3340]},{"lat":-38.6702106,"lng":145.6129466,"name":"Cape Paterson","types":"['locality', 'political']","placeID":"ChIJ2UIJ1NNyKmsRgG2gMKR5BQQ","state":"VIC","distance":null,"travelTime":null,"postcode":[3995]},{"lat":-37.6588821,"lng":144.4424195,"name":"Darley","types":"['locality', 'political']","placeID":"ChIJ5RKs1wTA1moRkPmMIXVWBAU","state":"VIC","distance":null,"travelTime":null,"postcode":[3340]},{"lat":-38.5509035,"lng":145.672292,"name":"Lance Creek","types":"['locality', 'political']","placeID":"ChIJawUwWykQKmsRMG-gMKR5BQQ","state":"VIC","distance":null,"travelTime":null,"postcode":[3995]},{"lat":-37.5071665,"lng":144.4274721,"name":"Lerderderg","types":"['locality', 'political']","placeID":"ChIJjXiUEYDd1moRAHSgMKR5BQQ","state":"VIC","distance":null,"travelTime":null,"postcode":[3458]},{"lat":-37.5911687,"lng":144.4616534,"name":"Coimadai","types":"['locality', 'political']","placeID":"ChIJrUz2pC7p1moRDerbQ704Jeg","state":"VIC","distance":null,"travelTime":null,"postcode":[3340]},{"lat":-37.4541128,"lng":144.295555,"name":"Barrys Reef","types":"['locality', 'political']","placeID":"ChIJqyNhKdLE1moRAHKgMKR5BQQ","state":"VIC","distance":null,"travelTime":null,"postcode":[3458]},{"lat":-38.6089501,"lng":145.5911028,"name":"Wonthaggi","types":"['colloquial_area', 'locality', 'political']","placeID":"ChIJpejvp4cMKmsRYs96mtNUQfM","state":"VIC","distance":null,"travelTime":null,"postcode":[3995]},{"lat":-38.5736128,"lng":145.7179572,"name":"Wattle Bank","types":"['locality', 'political']","placeID":"ChIJ5y3yVK8RKmsRAHGgMKR5BQQ","state":"VIC","distance":null,"travelTime":null,"postcode":[3995]},{"lat":-37.5480908,"lng":144.8461009,"name":"Oaklands Junction","types":"['locality', 'political']","placeID":"ChIJKQCN4I1W1moRAM-MIXVWBAU","state":"VIC","distance":null,"travelTime":null,"postcode":[3063]},{"lat":-37.0914763,"lng":145.4062431,"name":"Highlands","types":"['locality', 'political']","placeID":"ChIJk3c919kB2GoRcH2gMKR5BQQ","state":"VIC","distance":null,"travelTime":null,"postcode":[3660]},{"lat":-37.6301343,"lng":144.9492995,"name":"Somerton","types":"['locality', 'political']","placeID":"ChIJH7devNBR1moR4M-MIXVWBAU","state":"VIC","distance":null,"travelTime":null,"postcode":[3062]},{"lat":-37.367972,"lng":144.4177454,"name":"Fern Hill","types":"['locality', 'political']","placeID":"ChIJKbeYY7zf1moRMHugMKR5BQQ","state":"VIC","distance":null,"travelTime":null,"postcode":[3458]},{"lat":-37.6191629,"lng":144.9278395,"name":"Roxburgh Park","types":"['locality', 'political']","placeID":"ChIJW1EUYK5R1moRkM-MIXVWBAU","state":"VIC","distance":null,"travelTime":null,"postcode":[3064]},{"lat":-37.8778697,"lng":145.0445735,"name":"Caulfield East","types":"['locality', 'political']","placeID":"ChIJU333GIxp1moRAPiMIXVWBAU","state":"VIC","distance":null,"travelTime":null,"postcode":[3145]},{"lat":-37.3687818,"lng":144.2963842,"name":"Little Hampton","types":"['locality', 'political']","placeID":"ChIJbRlG9JbZ1moRMH-gMKR5BQQ","state":"VIC","distance":null,"travelTime":null,"postcode":[3458]},{"lat":-37.1885305,"lng":144.382497,"name":"Malmsbury","types":"['locality', 'political']","placeID":"ChIJDWlARic912oRkH-gMKR5BQQ","state":"VIC","distance":null,"travelTime":null,"postcode":[3446]},{"lat":-37.695178,"lng":144.5011261,"name":"Hopetoun Park","types":"['locality', 'political']","placeID":"ChIJrU2HxQmU1moRsPmMIXVWBAU","state":"VIC","distance":null,"travelTime":null,"postcode":[3340]},{"lat":-38.1703894,"lng":145.9683989,"name":"Nilma","types":"['locality', 'political']","placeID":"ChIJSzWMxNuXKWsRwGWgMKR5BQQ","state":"VIC","distance":null,"travelTime":null,"postcode":[3821]},{"lat":-37.8401913,"lng":145.5933991,"name":"Hoddles Creek","types":"['locality', 'political']","placeID":"ChIJU78c2i7RKWsRINiMIXVWBAU","state":"VIC","distance":null,"travelTime":null,"postcode":[3139]},{"lat":-37.2828847,"lng":144.2882361,"name":"Denver","types":"['locality', 'political']","placeID":"ChIJBZFE6pgn12oRQHqgMKR5BQQ","state":"VIC","distance":null,"travelTime":null,"postcode":[3461]},{"lat":-37.8689315,"lng":145.3525334,"name":"Sassafras","types":"['locality', 'political']","placeID":"ChIJOyBVqO0k1moR0NqMIXVWBAU","state":"VIC","distance":null,"travelTime":null,"postcode":[3787]},{"lat":-37.6015115,"lng":145.4183447,"name":"Dixons Creek","types":"['locality', 'political']","placeID":"ChIJibXZzMHW12oRcPqMIXVWBAU","state":"VIC","distance":null,"travelTime":null,"postcode":[3775]},{"lat":-37.6531308,"lng":145.449776,"name":"Tarrawarra","types":"['locality', 'political']","placeID":"ChIJwZmPd__U12oR4PqMIXVWBAU","state":"VIC","distance":null,"travelTime":null,"postcode":[3775]},{"lat":-37.3776057,"lng":144.1280943,"name":"Musk Vale","types":"['locality', 'political']","placeID":"ChIJH4A_xTfS1moRUIGgMKR5BQQ","state":"VIC","distance":null,"travelTime":null,"postcode":[3461]},{"lat":-37.6812591,"lng":145.5321371,"name":"Badger Creek","types":"['locality', 'political']","placeID":"ChIJhciX26krKGsR8PqMIXVWBAU","state":"VIC","distance":null,"travelTime":null,"postcode":[3777]},{"lat":-37.896518,"lng":145.2472157,"name":"Knoxfield","types":"['locality', 'political']","placeID":"ChIJawID8rI91moRwNuMIXVWBAU","state":"VIC","distance":null,"travelTime":null,"postcode":[3180]},{"lat":-37.864,"lng":144.982,"name":"St Kilda","types":"['locality', 'political']","placeID":"ChIJiSM5Zmho1moR4NqMIXVWBAU","state":"VIC","distance":null,"travelTime":null,"postcode":[3182]},{"lat":-37.6571292,"lng":145.3745877,"name":"Yarra Glen","types":"['locality', 'political']","placeID":"ChIJkyMpSTvT12oRgM-MIXVWBAU","state":"VIC","distance":null,"travelTime":null,"postcode":[3775]},{"lat":-37.8726442,"lng":145.0247002,"name":"Caulfield North","types":"['locality', 'political']","placeID":"ChIJ9-Vp1KZp1moRUNuMIXVWBAU","state":"VIC","distance":null,"travelTime":null,"postcode":[3161]},{"lat":-37.2614809,"lng":144.1593228,"name":"Mount Franklin","types":"['locality', 'political']","placeID":"ChIJp9LYIwkq12oR0ICgMKR5BQQ","state":"VIC","distance":null,"travelTime":null,"postcode":[3461]},{"lat":-37.3519503,"lng":144.1268601,"name":"Sailors Hill","types":"['locality', 'political']","placeID":"ChIJ5_HDPP_S1moRoNKgMKR5BQU","state":"VIC","distance":null,"travelTime":null,"postcode":[3461]},{"lat":-37.3723188,"lng":144.195727,"name":"Musk","types":"['locality', 'political']","placeID":"ChIJy8f_nx_R1moRQIGgMKR5BQQ","state":"VIC","distance":null,"travelTime":null,"postcode":[3461]},{"lat":-37.3158179,"lng":144.2212584,"name":"Wheatsheaf","types":"['locality', 'political']","placeID":"ChIJqcPtHsvX1moRUIagMKR5BQQ","state":"VIC","distance":null,"travelTime":null,"postcode":[3461]},{"lat":-37.0204832,"lng":145.4488168,"name":"Dropmore","types":"['locality', 'political']","placeID":"ChIJfTBlTgUB2GoRcHqgMKR5BQQ","state":"VIC","distance":null,"travelTime":null,"postcode":[3660]},{"lat":-37.2218133,"lng":145.1378202,"name":"Tyaak","types":"['locality', 'political']","placeID":"ChIJL5tzNlLr12oRYIWgMKR5BQQ","state":"VIC","distance":null,"travelTime":null,"postcode":[3658]},{"lat":-37.8891994,"lng":145.0570577,"name":"Carnegie","types":"['locality', 'political']","placeID":"ChIJb4uHlo5p1moRQNyMIXVWBAU","state":"VIC","distance":null,"travelTime":null,"postcode":[3163]},{"lat":-37.3912224,"lng":144.120451,"name":"Sailors Falls","types":"['locality', 'political']","placeID":"ChIJaYGmBGPN1moRIIOgMKR5BQQ","state":"VIC","distance":null,"travelTime":null,"postcode":[3461]},{"lat":-37.8810314,"lng":145.3614414,"name":"Sherbrooke","types":"['locality', 'political']","placeID":"ChIJNUdxiX8k1moR8NuMIXVWBAU","state":"VIC","distance":null,"travelTime":null,"postcode":[3789]},{"lat":-37.6372475,"lng":145.0935493,"name":"South Morang","types":"['locality', 'political']","placeID":"ChIJF7MP6s9L1moRYM-MIXVWBAU","state":"VIC","distance":null,"travelTime":null,"postcode":[3752]},{"lat":-38.256666,"lng":144.2752558,"name":"Freshwater Creek","types":"['locality', 'political']","placeID":"ChIJVeOa6-dx1GoRmkrJ9hYGeiQ","state":"VIC","distance":null,"travelTime":null,"postcode":[3216,3217]},{"lat":-38.2068869,"lng":144.3402631,"name":"Grovedale","types":"['locality', 'political']","placeID":"ChIJy3xOSLNs1GoRwOOMIXVWBAU","state":"VIC","distance":null,"travelTime":null,"postcode":[3216]},{"lat":-37.1503015,"lng":145.2687816,"name":"Kerrisdale","types":"['locality', 'political']","placeID":"ChIJR3RIjbHx12oR4H2gMKR5BQQ","state":"VIC","distance":null,"travelTime":null,"postcode":[3660]},{"lat":-37.1865458,"lng":145.3295217,"name":"Homewood","types":"['locality', 'political']","placeID":"ChIJ_c7DcWTl12oRgH2gMKR5BQQ","state":"VIC","distance":null,"travelTime":null,"postcode":[3717]},{"lat":-37.2870958,"lng":144.1977671,"name":"Porcupine Ridge","types":"['locality', 'political']","placeID":"ChIJ7TsVr8jZ1moRYIKgMKR5BQQ","state":"VIC","distance":null,"travelTime":null,"postcode":[3461]},{"lat":-37.0994687,"lng":144.4208083,"name":"Metcalfe","types":"['locality', 'political']","placeID":"ChIJ19B7HWcV12oR8H-gMKR5BQQ","state":"VIC","distance":null,"travelTime":null,"postcode":[3448]},{"lat":-37.2512718,"lng":145.0473442,"name":"Sunday Creek","types":"['locality', 'political']","placeID":"ChIJzy-Zxp6912oRQISgMKR5BQQ","state":"VIC","distance":null,"travelTime":null,"postcode":[3658]},{"lat":-37.5864808,"lng":145.1283462,"name":"Doreen","types":"['locality', 'political']","placeID":"ChIJf-qaCFI11moREM-MIXVWBAU","state":"VIC","distance":null,"travelTime":null,"postcode":[3754]},{"lat":-37.5996872,"lng":145.0886978,"name":"Mernda","types":"['locality', 'political']","placeID":"ChIJgwC8RRhL1moR0M6MIXVWBAU","state":"VIC","distance":null,"travelTime":null,"postcode":[3754]},{"lat":-38.0230494,"lng":144.5265893,"name":"Point Wilson","types":"['locality', 'political']","placeID":"ChIJA58_9fsm1GoRIPuMIXVWBAU","state":"VIC","distance":null,"travelTime":null,"postcode":[3212]},{"lat":-38.098817,"lng":144.3550008,"name":"Norlane","types":"['locality', 'political']","placeID":"ChIJWS_YDzEX1GoRkOGMIXVWBAU","state":"VIC","distance":null,"travelTime":null,"postcode":[3214]},{"lat":-37.648892,"lng":144.4818223,"name":"Merrimu","types":"['locality', 'political']","placeID":"ChIJHbqrr9bq1moRwPmMIXVWBAU","state":"VIC","distance":null,"travelTime":null,"postcode":[3340]},{"lat":-37.9650097,"lng":145.1733926,"name":"Noble Park","types":"['locality', 'political']","placeID":"ChIJMQPcIAwU1moRoN6MIXVWBAU","state":"VIC","distance":null,"travelTime":null,"postcode":[3174]},{"lat":-37.5308833,"lng":144.2249844,"name":"Colbrook","types":"['locality', 'political']","placeID":"ChIJ98NaauXI1moR0HKgMKR5BQQ","state":"VIC","distance":null,"travelTime":null,"postcode":[3342]},{"lat":-37.4593445,"lng":144.5981551,"name":"New Gisborne","types":"['locality', 'political']","placeID":"ChIJWV7wr9b81moR4M2MIXVWBAU","state":"VIC","distance":null,"travelTime":null,"postcode":[3438]},{"lat":-37.2669876,"lng":144.6401907,"name":"Cobaw","types":"['locality', 'political']","placeID":"ChIJyarw2YYP12oRgHmgMKR5BQQ","state":"VIC","distance":null,"travelTime":null,"postcode":[3442]},{"lat":-37.3506332,"lng":144.7428496,"name":"Romsey","types":"['locality', 'political']","placeID":"ChIJHX45gMin12oRAIOgMKR5BQQ","state":"VIC","distance":null,"travelTime":null,"postcode":[3434]},{"lat":-37.4902773,"lng":144.5093678,"name":"Bullengarook","types":"['locality', 'political']","placeID":"ChIJhcmssZrm1moRwM2MIXVWBAU","state":"VIC","distance":null,"travelTime":null,"postcode":[3437]},{"lat":-37.5621587,"lng":143.8502556,"name":"Ballarat","types":"['colloquial_area', 'locality', 'political']","placeID":"ChIJeRiTMFRE0WoRILegMKR5BQQ","state":"VIC","distance":null,"travelTime":null,"postcode":[3350,3353]},{"lat":-38.0453436,"lng":145.1702424,"name":"Bangholme","types":"['locality', 'political']","placeID":"ChIJlxr7rZwS1moR4OCMIXVWBAU","state":"VIC","distance":null,"travelTime":null,"postcode":[3175]},{"lat":-37.2090466,"lng":144.5916808,"name":"Pastoria","types":"['locality', 'political']","placeID":"ChIJVd_QIZMR12oRIIKgMKR5BQQ","state":"VIC","distance":null,"travelTime":null,"postcode":[3444]},{"lat":-38.4592776,"lng":145.5978706,"name":"Almurta","types":"['locality', 'political']","placeID":"ChIJT_GrML0FKmsRsGygMKR5BQQ","state":"VIC","distance":null,"travelTime":null,"postcode":[3979]},{"lat":-38.1635904,"lng":145.8845191,"name":"Warragul West","types":"['locality', 'political']","placeID":"ChIJeaykiQSVKWsRwGqgMKR5BQQ","state":"VIC","distance":null,"travelTime":null,"postcode":[3821]},{"lat":-37.1507163,"lng":144.5051751,"name":"Langley","types":"['locality', 'political']","placeID":"ChIJzwnPG58W12oR0H6gMKR5BQQ","state":"VIC","distance":null,"travelTime":null,"postcode":[3444]},{"lat":-37.1963804,"lng":144.3167855,"name":"Drummond North","types":"['locality', 'political']","placeID":"ChIJHRfxXhgl12oRkHqgMKR5BQQ","state":"VIC","distance":null,"travelTime":null,"postcode":[3446]},{"lat":-36.9891473,"lng":144.3587555,"name":"Sutton Grange","types":"['locality', 'political']","placeID":"ChIJayNRc-NA12oRUISgMKR5BQQ","state":"VIC","distance":null,"travelTime":null,"postcode":[3448]},{"lat":-37.7534944,"lng":145.0394197,"name":"Bellfield","types":"['locality', 'political']","placeID":"ChIJx1K_Ey1E1moR8PyMIXVWBAU","state":"VIC","distance":null,"travelTime":null,"postcode":[3081,3381]},{"lat":-37.7426485,"lng":145.0525538,"name":"Heidelberg Heights","types":"['locality', 'political']","placeID":"ChIJ9b6MaHFG1moRoNOMIXVWBAU","state":"VIC","distance":null,"travelTime":null,"postcode":[3081]},{"lat":-37.6664237,"lng":145.120526,"name":"Plenty","types":"['locality', 'political']","placeID":"ChIJh9PRpCBK1moRcNCMIXVWBAU","state":"VIC","distance":null,"travelTime":null,"postcode":[3090]},{"lat":-37.3116762,"lng":144.5926671,"name":"Newham","types":"['locality', 'political']","placeID":"ChIJ3X6mDdUE12oRsIGgMKR5BQQ","state":"VIC","distance":null,"travelTime":null,"postcode":[3442]},{"lat":-37.7085749,"lng":145.1192676,"name":"Briar Hill","types":"['locality', 'political']","placeID":"ChIJdZiqCTpI1moR0P2MIXVWBAU","state":"VIC","distance":null,"travelTime":null,"postcode":[3088]},{"lat":-37.6394358,"lng":145.1323029,"name":"Yarrambat","types":"['locality', 'political']","placeID":"ChIJ2TaJk3dK1moRwM-MIXVWBAU","state":"VIC","distance":null,"travelTime":null,"postcode":[3091]},{"lat":-37.1037045,"lng":144.3329407,"name":"Elphinstone","types":"['locality', 'political']","placeID":"ChIJOV76coM_12oR8HqgMKR5BQQ","state":"VIC","distance":null,"travelTime":null,"postcode":[3448]},{"lat":-37.7614474,"lng":145.060915,"name":"Eaglemont","types":"['locality', 'political']","placeID":"ChIJ8Y-W5GxE1moRcP6MIXVWBAU","state":"VIC","distance":null,"travelTime":null,"postcode":[3084]},{"lat":-37.6887855,"lng":145.2342372,"name":"Kangaroo Ground","types":"['locality', 'political']","placeID":"ChIJ4cBgPWU21moRoNCMIXVWBAU","state":"VIC","distance":null,"travelTime":null,"postcode":[3097]},{"lat":-37.7397321,"lng":145.0915563,"name":"Viewbank","types":"['locality', 'political']","placeID":"ChIJoRA-KMtH1moR0NOMIXVWBAU","state":"VIC","distance":null,"travelTime":null,"postcode":[3084]},{"lat":-37.6376635,"lng":145.0264991,"name":"Epping","types":"['locality', 'political']","placeID":"ChIJ4QHVOolO1moR0M-MIXVWBAU","state":"VIC","distance":null,"travelTime":null,"postcode":[3076]},{"lat":-37.782195,"lng":144.9731431,"name":"Carlton North","types":"['locality', 'political']","placeID":"ChIJOROExDFD1moRQNeMIXVWBAU","state":"VIC","distance":null,"travelTime":null,"postcode":[3054]},{"lat":-37.6374085,"lng":145.1944322,"name":"Hurstbridge","types":"['locality', 'political']","placeID":"ChIJnyeQi-s01moRoM-MIXVWBAU","state":"VIC","distance":null,"travelTime":null,"postcode":[3099]},{"lat":-37.5794689,"lng":145.2017555,"name":"Arthurs Creek","types":"['locality', 'political']","placeID":"ChIJQ82qndjL12oRoP2MIXVWBAU","state":"VIC","distance":null,"travelTime":null,"postcode":[3099]},{"lat":-37.6703157,"lng":145.2559452,"name":"Watsons Creek","types":"['locality', 'political']","placeID":"ChIJC75CKB0z1moRIP-MIXVWBAU","state":"VIC","distance":null,"travelTime":null,"postcode":[3097]},{"lat":-37.696417,"lng":145.2764089,"name":"Bend of Islands","types":"['locality', 'political']","placeID":"ChIJqWBlwz4y1moRcPyMIXVWBAU","state":"VIC","distance":null,"travelTime":null,"postcode":[]},{"lat":-38.1054204,"lng":145.2818338,"name":"Cranbourne","types":"['locality', 'political']","placeID":"ChIJNxy3Lo0N1moRUOGMIXVWBAU","state":"VIC","distance":null,"travelTime":null,"postcode":[3977]},{"lat":-37.4134198,"lng":144.2861946,"name":"Newbury","types":"['locality', 'political']","placeID":"ChIJbfTof-3a1moRoIGgMKR5BQQ","state":"VIC","distance":null,"travelTime":null,"postcode":[3458]},{"lat":-38.2972974,"lng":145.0778685,"name":"Tuerong","types":"['locality', 'political']","placeID":"ChIJo-Vbq5rd1WoRoP6MIXVWBAU","state":"VIC","distance":null,"travelTime":null,"postcode":[3915]},{"lat":-37.4050988,"lng":144.3542238,"name":"North Blackwood","types":"['locality', 'political']","placeID":"ChIJaX7_gRPc1moRAHWgMKR5BQQ","state":"VIC","distance":null,"travelTime":null,"postcode":[3458]},{"lat":-37.3889801,"lng":144.3230464,"name":"Trentham","types":"['locality', 'political']","placeID":"ChIJpStf9lHZ1moRQIWgMKR5BQQ","state":"VIC","distance":null,"travelTime":null,"postcode":[3458]},{"lat":-37.9112468,"lng":145.3571402,"name":"Belgrave","types":"['locality', 'political']","placeID":"ChIJL9xa1Asj1moRIN2MIXVWBAU","state":"VIC","distance":null,"travelTime":null,"postcode":[3160]},{"lat":-37.0362415,"lng":144.7976405,"name":"Tooborac","types":"['locality', 'political']","placeID":"ChIJKaS0zc6e12oRAIWgMKR5BQQ","state":"VIC","distance":null,"travelTime":null,"postcode":[3522]},{"lat":-37.5577612,"lng":145.1095604,"name":"Yan Yean","types":"['locality', 'political']","placeID":"ChIJ8d0lCXq112oRYM6MIXVWBAU","state":"VIC","distance":null,"travelTime":null,"postcode":[3755]},{"lat":-37.6415111,"lng":145.2402637,"name":"Panton Hill","types":"['locality', 'political']","placeID":"ChIJWwuW_jgz1moR8M-MIXVWBAU","state":"VIC","distance":null,"travelTime":null,"postcode":[3759]},{"lat":-38.2941123,"lng":144.3918473,"name":"Breamlea","types":"['locality', 'political']","placeID":"ChIJO3yYeTZq1GoRkPyMIXVWBAU","state":"VIC","distance":null,"travelTime":null,"postcode":[3227]},{"lat":-37.3943164,"lng":144.2220191,"name":"Bullarto","types":"['locality', 'political']","placeID":"ChIJ7_ksVfzQ1moR0HegMKR5BQQ","state":"VIC","distance":null,"travelTime":null,"postcode":[3461]},{"lat":-36.7596196,"lng":144.2785764,"name":"Bendigo","types":"['locality', 'political']","placeID":"ChIJ48V3POtZ12oRQNmgMKR5BQU","state":"VIC","distance":null,"travelTime":null,"postcode":[3550,3552]},{"lat":-38.3147752,"lng":144.3183496,"name":"Torquay","types":"['locality', 'political']","placeID":"ChIJM7Coxa5u1GoRYOWMIXVWBAU","state":"VIC","distance":null,"travelTime":null,"postcode":[3228]},{"lat":-37.332501,"lng":144.1930141,"name":"Coomoora","types":"['locality', 'political']","placeID":"ChIJt_deysbW1moRoHmgMKR5BQQ","state":"VIC","distance":null,"travelTime":null,"postcode":[3461]},{"lat":-38.2742666,"lng":144.4587117,"name":"Connewarre","types":"['locality', 'political']","placeID":"ChIJx1cls7tq1GoRsOOMIXVWBAU","state":"VIC","distance":null,"travelTime":null,"postcode":[3227]},{"lat":-37.7776253,"lng":144.0284933,"name":"Elaine","types":"['locality', 'political']","placeID":"ChIJoSQQEeRU0WoRIHOgMKR5BQQ","state":"VIC","distance":null,"travelTime":null,"postcode":[3334]},{"lat":-37.3777851,"lng":145.0411677,"name":"Heathcote Junction","types":"['locality', 'political']","placeID":"ChIJMZF_J9q712oRIH2gMKR5BQQ","state":"VIC","distance":null,"travelTime":null,"postcode":[3758]},{"lat":-38.4073164,"lng":144.1859975,"name":"Anglesea","types":"['locality', 'political']","placeID":"ChIJ4cUPFAOA1GoRQACNIXVWBAU","state":"VIC","distance":null,"travelTime":null,"postcode":[3230]},{"lat":-38.0900117,"lng":146.0704715,"name":"Shady Creek","types":"['locality', 'political']","placeID":"ChIJJTVLPYijKWsRgGegMKR5BQQ","state":"VIC","distance":null,"travelTime":null,"postcode":[3821]},{"lat":-37.7478355,"lng":145.6592626,"name":"Millgrove","types":"['locality', 'political']","placeID":"ChIJm8hgRUAtKGsRgNSMIXVWBAU","state":"VIC","distance":null,"travelTime":null,"postcode":[3799]},{"lat":-37.6196567,"lng":145.2864559,"name":"Smiths Gully","types":"['locality', 'political']","placeID":"ChIJT0N0A9LM12oRQM-MIXVWBAU","state":"VIC","distance":null,"travelTime":null,"postcode":[3760]},{"lat":-37.9244173,"lng":145.3479199,"name":"Belgrave Heights","types":"['locality', 'political']","placeID":"ChIJyfKHk-Mi1moRIN6MIXVWBAU","state":"VIC","distance":null,"travelTime":null,"postcode":[3160]},{"lat":-38.1020522,"lng":144.0585605,"name":"Inverleigh","types":"['locality', 'political']","placeID":"ChIJUSv5Qc7z02oRcLqgMKR5BQQ","state":"VIC","distance":null,"travelTime":null,"postcode":[3321]},{"lat":-37.1435462,"lng":144.1158875,"name":"Strangways","types":"['locality', 'political']","placeID":"ChIJQwFFQOss12oR8IOgMKR5BQQ","state":"VIC","distance":null,"travelTime":null,"postcode":[3461]},{"lat":-38.2718747,"lng":145.8927693,"name":"Tetoora Road","types":"['locality', 'political']","placeID":"ChIJYb3nDoySKWsRgGigMKR5BQQ","state":"VIC","distance":null,"travelTime":null,"postcode":[3821]},{"lat":-38.4267366,"lng":145.5971237,"name":"Kernot","types":"['locality', 'political']","placeID":"ChIJvTVTNmYEKmsR4G6gMKR5BQQ","state":"VIC","distance":null,"travelTime":null,"postcode":[3979]},{"lat":-38.3469243,"lng":144.3011286,"name":"Jan Juc","types":"['locality', 'political']","placeID":"ChIJRytwyH5l1GoRsOWMIXVWBAU","state":"VIC","distance":null,"travelTime":null,"postcode":[3228]},{"lat":-37.8862899,"lng":145.3792354,"name":"Kallista","types":"['locality', 'political']","placeID":"ChIJ-Tzqq6km1moRENyMIXVWBAU","state":"VIC","distance":null,"travelTime":null,"postcode":[3791]},{"lat":-37.6483646,"lng":145.329942,"name":"Christmas Hills","types":"['locality', 'political']","placeID":"ChIJ5TppNaQy1moRcM-MIXVWBAU","state":"VIC","distance":null,"travelTime":null,"postcode":[3775]},{"lat":-38.5169812,"lng":145.6619617,"name":"Glen Alvie","types":"['locality', 'political']","placeID":"ChIJDSiyxFwFKmsRQG6gMKR5BQQ","state":"VIC","distance":null,"travelTime":null,"postcode":[3979]},{"lat":-38.2030296,"lng":145.2351589,"name":"Pearcedale","types":"['locality', 'political']","placeID":"ChIJwcX_x5AJ1moRQOOMIXVWBAU","state":"VIC","distance":null,"travelTime":null,"postcode":[3912]},{"lat":-38.2610054,"lng":145.1669214,"name":"Tyabb","types":"['locality', 'political']","placeID":"ChIJm_Ezn-Lj1WoREOqMIXVWBAU","state":"VIC","distance":null,"travelTime":null,"postcode":[3913]},{"lat":-38.2129151,"lng":145.3154372,"name":"Cannons Creek","types":"['locality', 'political']","placeID":"ChIJew51HNgH1moRkOOMIXVWBAU","state":"VIC","distance":null,"travelTime":null,"postcode":[3977]},{"lat":-37.6724064,"lng":148.7942585,"name":"Manorina","types":"['locality', 'political']","placeID":"ChIJ7Yy0yaboOmsRgEegMKR5BQQ","state":"VIC","distance":null,"travelTime":null,"postcode":[3889]},{"lat":-37.65,"lng":144.922,"name":"Meadow Heights","types":"['locality', 'political']","placeID":"ChIJX4dqdIlQ1moRENCMIXVWBAU","state":"VIC","distance":null,"travelTime":null,"postcode":[3048]},{"lat":-38.230971,"lng":145.7921919,"name":"Athlone","types":"['locality', 'political']","placeID":"ChIJF-EfHJbtKWsR4GygMKR5BQQ","state":"VIC","distance":null,"travelTime":null,"postcode":[3818]},{"lat":-37.7530064,"lng":145.6987403,"name":"Warburton","types":"['locality', 'political']","placeID":"ChIJ2y-MiaAtKGsR4PaMIXVWBAU","state":"VIC","distance":null,"travelTime":null,"postcode":[3799]},{"lat":-38.5881025,"lng":146.0399419,"name":"Stony Creek","types":"['locality', 'political']","placeID":"ChIJkwKYcccuKmsRwGegMKR5BQQ","state":"VIC","distance":null,"travelTime":null,"postcode":[3371,3957]},{"lat":-37.601374,"lng":145.2162555,"name":"Cottles Bridge","types":"['locality', 'political']","placeID":"ChIJK2cX6ljL12oRMM-MIXVWBAU","state":"VIC","distance":null,"travelTime":null,"postcode":[3099]},{"lat":-38.1380859,"lng":145.8554119,"name":"Drouin","types":"['locality', 'political']","placeID":"ChIJDwmvra3qKWsRcF2gMKR5BQQ","state":"VIC","distance":null,"travelTime":null,"postcode":[3818]},{"lat":-37.791629,"lng":145.0482331,"name":"Kew East","types":"['locality', 'political']","placeID":"ChIJh2V6EpdD1moRYNeMIXVWBAU","state":"VIC","distance":null,"travelTime":null,"postcode":[3102]},{"lat":-37.7379654,"lng":145.1153014,"name":"Lower Plenty","types":"['locality', 'political']","placeID":"ChIJi0op6tpH1moRcNOMIXVWBAU","state":"VIC","distance":null,"travelTime":null,"postcode":[3093]},{"lat":-37.7515262,"lng":145.3174608,"name":"Chirnside Park","types":"['locality', 'political']","placeID":"ChIJ-48iKBAu1moRUNKMIXVWBAU","state":"VIC","distance":null,"travelTime":null,"postcode":[3116]},{"lat":-37.8296728,"lng":145.0126479,"name":"Burnley","types":"['locality', 'political']","placeID":"ChIJVaEARUNC1moRgNmMIXVWBAU","state":"VIC","distance":null,"travelTime":null,"postcode":[3121]},{"lat":-37.8810091,"lng":145.0959519,"name":"Chadstone","types":"['locality', 'political']","placeID":"ChIJJeiaNoRq1moRANyMIXVWBAU","state":"VIC","distance":null,"travelTime":null,"postcode":[3148]},{"lat":-38.1993718,"lng":145.4905391,"name":"Koo Wee Rup","types":"['locality', 'political']","placeID":"ChIJTafqv4oC1moR8PuMIXVWBAU","state":"VIC","distance":null,"travelTime":null,"postcode":[3981]},{"lat":-37.8749614,"lng":145.1291077,"name":"Mount Waverley","types":"['locality', 'political']","placeID":"ChIJU276ZSZr1moR8NqMIXVWBAU","state":"VIC","distance":null,"travelTime":null,"postcode":[3149]},{"lat":-38.3209351,"lng":145.8310559,"name":"Poowong East","types":"['locality', 'political']","placeID":"ChIJ9bpG4zfzKWsRMGagMKR5BQQ","state":"VIC","distance":null,"travelTime":null,"postcode":[3988]},{"lat":-38.2359443,"lng":145.7206825,"name":"Heath Hill","types":"['locality', 'political']","placeID":"ChIJOw9ADy7wKWsRgG6gMKR5BQQ","state":"VIC","distance":null,"travelTime":null,"postcode":[3981]},{"lat":-37.9067871,"lng":145.1890123,"name":"Wheelers Hill","types":"['locality', 'political']","placeID":"ChIJf1qY9So-1moREN2MIXVWBAU","state":"VIC","distance":null,"travelTime":null,"postcode":[3150]},{"lat":-37.8426014,"lng":145.2704817,"name":"Bayswater","types":"['locality', 'political']","placeID":"ChIJvadHC5s71moR4NmMIXVWBAU","state":"VIC","distance":null,"travelTime":null,"postcode":[3153]},{"lat":-37.8494981,"lng":145.1090089,"name":"Burwood","types":"['locality', 'political']","placeID":"ChIJ9Rj-aF5A1moRENqMIXVWBAU","state":"VIC","distance":null,"travelTime":null,"postcode":[3125]},{"lat":-37.6729514,"lng":144.8519714,"name":"Melbourne Airport","types":"['locality', 'political']","placeID":"ChIJ6_6XpuJY1moRMNCMIXVWBAU","state":"VIC","distance":null,"travelTime":null,"postcode":[3045]},{"lat":-37.8636015,"lng":145.0811189,"name":"Ashburton","types":"['locality', 'political']","placeID":"ChIJwUj6hc5B1moRANuMIXVWBAU","state":"VIC","distance":null,"travelTime":null,"postcode":[3147]},{"lat":-38.4179876,"lng":145.5008505,"name":"Queensferry","types":"['locality', 'political']","placeID":"ChIJeRTNmHkHKmsRMHCgMKR5BQQ","state":"VIC","distance":null,"travelTime":null,"postcode":[3984]},{"lat":-37.8743502,"lng":145.1668205,"name":"Glen Waverley","types":"['locality', 'political']","placeID":"ChIJy2a9frZr1moRQNuMIXVWBAU","state":"VIC","distance":null,"travelTime":null,"postcode":[3150]},{"lat":-37.8259876,"lng":145.2874972,"name":"Bayswater North","types":"['locality', 'political']","placeID":"ChIJ_d155zU61moR0NiMIXVWBAU","state":"VIC","distance":null,"travelTime":null,"postcode":[3153]},{"lat":-37.8773116,"lng":145.059272,"name":"Malvern East","types":"['locality', 'political']","placeID":"ChIJec3ybBFq1moRoNuMIXVWBAU","state":"VIC","distance":null,"travelTime":null,"postcode":[3145]},{"lat":-38.3711189,"lng":145.5639844,"name":"The Gurdies","types":"['locality', 'political']","placeID":"ChIJt4PXomkBKmsRkHCgMKR5BQQ","state":"VIC","distance":null,"travelTime":null,"postcode":[3984]},{"lat":-37.7832944,"lng":144.9838466,"name":"Fitzroy North","types":"['locality', 'political']","placeID":"ChIJr_JDKBVD1moRENeMIXVWBAU","state":"VIC","distance":null,"travelTime":null,"postcode":[3068]},{"lat":-38.3325707,"lng":145.6728631,"name":"Nyora","types":"['locality', 'political']","placeID":"ChIJKRep4Ej3KWsR0G-gMKR5BQQ","state":"VIC","distance":null,"travelTime":null,"postcode":[3987]},{"lat":-37.7983606,"lng":144.9784894,"name":"Fitzroy","types":"['locality', 'political']","placeID":"ChIJwWVq9cBC1moRkOeMIXVWBAU","state":"VIC","distance":null,"travelTime":null,"postcode":[3065]},{"lat":-38.2945793,"lng":145.8452306,"name":"Mountain View","types":"['locality', 'political']","placeID":"ChIJSU-xlD-NKWsR4GSgMKR5BQQ","state":"VIC","distance":null,"travelTime":null,"postcode":[3988]},{"lat":-37.7745687,"lng":145.6442913,"name":"Wesburn","types":"['locality', 'political']","placeID":"ChIJy9pzTcnSKWsR0NWMIXVWBAU","state":"VIC","distance":null,"travelTime":null,"postcode":[3799]},{"lat":-38.1876128,"lng":145.7097146,"name":"Modella","types":"['locality', 'political']","placeID":"ChIJAxpbMtzuKWsRIGSgMKR5BQQ","state":"VIC","distance":null,"travelTime":null,"postcode":[3816]},{"lat":-37.687232,"lng":144.9128564,"name":"Jacana","types":"['locality', 'political']","placeID":"ChIJW3kdbI1a1moRcP2MIXVWBAU","state":"VIC","distance":null,"travelTime":null,"postcode":[3047]},{"lat":-38.1449402,"lng":145.9868161,"name":"Nilma North","types":"['locality', 'political']","placeID":"ChIJHYAebiG9KWsR0GWgMKR5BQQ","state":"VIC","distance":null,"travelTime":null,"postcode":[3821]},{"lat":-38.0626937,"lng":145.9671635,"name":"Crossover","types":"['locality', 'political']","placeID":"ChIJ-ZEQA-i7KWsR0FygMKR5BQQ","state":"VIC","distance":null,"travelTime":null,"postcode":[3821]},{"lat":-38.2757324,"lng":145.9677099,"name":"Seaview","types":"['locality', 'political']","placeID":"ChIJg5Fsm5iRKWsRYGegMKR5BQQ","state":"VIC","distance":null,"travelTime":null,"postcode":[3821]},{"lat":-37.8395,"lng":144.9956,"name":"South Yarra","types":"locality,political","placeID":"ChIJm4WGJS9o1moRgOiMIXVWBAU","state":"VIC","distance":null,"travelTime":null,"postcode":[3141]},{"lat":-37.8109,"lng":145.0654,"name":"Deepdene","types":"locality,political","placeID":"ChIJmURDOmpB1moRpyw0EwsUaLA","state":"VIC","distance":null,"travelTime":null,"postcode":[3103]},{"lat":-37.9761,"lng":145.0947,"name":"Moorabbin Airport","types":"locality,political","placeID":"ChIJgw6kLvds1moRMPqMIXVWBAU","state":"VIC","distance":null,"travelTime":null,"postcode":[3194]},{"lat":-37.5346,"lng":144.9058,"name":"Mickleham","types":"locality,political","placeID":"ChIJPfpWsHRW1moRkM6MIXVWBAU","state":"VIC","distance":null,"travelTime":null,"postcode":[3064,3064]}]